[{"number":280,"name":"280 - HEYSEL / HEISEL","address":"HEYSEL / HEISEL - AVENUE DE L'IMPERATRICE CHARLOTTE / KEIZERIN CHARLOTTELAAN","latitude":50.897522,"longitude":4.334831},{"number":339,"name":"339 - MEUDON","address":"MEUDON - SQUARE MEUDON","latitude":50.845365,"longitude":4.41788},{"number":209,"name":"209 - VEEWEYDE / VEEWEIDE","address":"VEEWEYDE / VEEWEIDE - BD THEO LAMBERT (FACE 5 a 9) / THEO LAMBERTLAAN (TEGENOVER ( tot 9)","latitude":50.828602,"longitude":4.299621},{"number":236,"name":"236-MAISON COMMUNALE DE FOREST/VORST GEMEENTEHUIS","address":"MAISON COMMUNALE DE FOREST / VORST GEMEENTEHUIS - RUE SAINT DENIS 4 / SINT DENIJSSTRAAT 4","latitude":50.812328,"longitude":4.318885},{"number":21,"name":"021 - DE BROUCKERE (FERMÉE - TRAVAUX DE VOIRIE)","address":"FERMÉE - TRAVAUX DE VOIRIE - DE BROUCKERE - PLACE DE BROUCKERE/DE BROUCKEREPLEIN","latitude":50.851919,"longitude":4.352776},{"number":34,"name":"034 - FONTAINAS (FERMÉE - TRAVAUX)","address":"FERMÉE - TRAVAUX - FONTAINAS - BLD ANSPACH N°180 A 192/ANSPACHLAAN N°180 TOT 192","latitude":50.84563,"longitude":4.346942},{"number":211,"name":"211 - METRO CERIA","address":"METRO CERIA - CH DE MONS (FACE AU 1292 a 1284) / BERGENSESTEENWEG (TEGENOVER 1292 TOT 1284)","latitude":50.816528,"longitude":4.290832},{"number":278,"name":"278 - STADE / STADIUM","address":"STADE / STADIUM - AVENUE HOUBA DE STROOPER / HOUBA DE STROOPERLAAN","latitude":50.894005,"longitude":4.331902},{"number":47,"name":"047 - LES QUAIS / KAAIEN","address":"LES QUAIS/KAAIEN - QUAI A LA CHAUX/KALKKAAI 1-2","latitude":50.854714,"longitude":4.347151},{"number":270,"name":"270 - DE PADUWA","address":"DE PADUWA - AVENUE DES ANCIENS COMBATTANTS / OUD-STRIJDERSLAAN 1","latitude":50.859127,"longitude":4.414406},{"number":186,"name":"186 - GENOT","address":"GENOT - CHAUSSEE DE GAND DEVANT 1033","latitude":50.861783,"longitude":4.302607},{"number":336,"name":"336 - KRAAINEM","address":"KRAAINEM - AV DE WEZEMBEEK 7A","latitude":50.848578,"longitude":4.459038},{"number":314,"name":"314 - HERRMANN DEBROUX","address":"HERRMANN DEBROUX - AV HERRMANN DEBROUXLAAN","latitude":50.812325,"longitude":4.427962},{"number":324,"name":"324 - THOMAS BALIS","address":"THOMAS BALIS - CHEE DE WAVRE 1395 à 1403 / WAVERSESTEENWEG 1395 TOT 1403","latitude":50.819641,"longitude":4.412926},{"number":122,"name":"122 - GARE D'ETTERBEEK","address":"GARE D'ETTERBEEK/STATION VAN ETTERBEEK - BOULEVARD GENERAL JACQUES/GENERAAL JACQUESLAAN","latitude":50.822207,"longitude":4.389325},{"number":200,"name":"200 - VETERANS COLONIAUX / KOLONIALE VETERANEN","address":"VETERANS COLONIAUX / KOLONIALE VETERANEN - BD JULES GRAINDOR / JULES GRAINDORLAAN","latitude":50.843967,"longitude":4.313537},{"number":194,"name":"194 - STUYVENBERG","address":"AVENUE HOUBA DE STROOPER LAAN 30-32","latitude":50.885885,"longitude":4.342003},{"number":176,"name":"176 - COLONEL BOURG/KOLONEL BOURG","address":"COLONEL BOURG/KOLONEL BOURG - RUE COLONEL BOURG/ KOLONEL BOURGSTRAAT 104","latitude":50.852356,"longitude":4.408635},{"number":132,"name":"132 - DEUX CHAUSSEES","address":"DEUX CHAUSSEES - CHEE DE TERVURENLAAN FACE/TEGENOVER 93A","latitude":50.816338,"longitude":4.433895},{"number":333,"name":"333 - TRACTEBEL","address":"TRACTEBEL - AV MARCEL THIRY FACE AU N°93","latitude":50.856582,"longitude":4.430988},{"number":246,"name":"246 - GATTI DE GAMOND","address":"GATTI DE GAMMOND - RUE DE STALLE PROLONGEE/STALLE STRAAT 160","latitude":50.796471,"longitude":4.328415},{"number":53,"name":"053 - GARE DU MIDI / ZUIDSTATION","address":"GARE DU MIDI / ZUIDSTATION - PLACE VICTOR HORTA / VICTOR HORTAPLEIN","latitude":50.837499,"longitude":4.335947},{"number":286,"name":"286 - BENS","address":"BENS - CHEE D'ALSEMBERG DEVANT LE 548 / ALSEMBERSESTEENWEG VOOR 548","latitude":50.80814,"longitude":4.336901},{"number":5,"name":"005 - BOURSE / BEURS","address":"BOURSE / BEURS - RUE PAUL DEVAUX/PAUL DEVAUXSTRAAT","latitude":50.848893,"longitude":4.349396},{"number":39,"name":"039 - HOTEL DES MONNAIES / MUNTHOTEL","address":"HOTEL DES MONNAIES/MUNTHOTEL - BLD DE WATERLOO- WATERLOOLAAN 93/94/95/96/98","latitude":50.834237,"longitude":4.350732},{"number":110,"name":"110 - RODIN","address":"RODIN - AVENUE DE LA COURONNE (DEVANT 145 D) / KROONLAAN (N° 145 D)","latitude":50.826992,"longitude":4.382379},{"number":288,"name":"288 - HOUZEAU","address":"HOUZEAU - AVENUE HOUZEAU 10 / HOUZEAULAAN 10","latitude":50.802711,"longitude":4.358842},{"number":82,"name":"082 - PANNENHUIS","address":"PANNENHUIS - RUE CHARLES DEMEER/CHARLES DEMEERSTRAAT  71","latitude":50.873012,"longitude":4.341687},{"number":290,"name":"290 - GARE DE CALEVOET / KALEVOET STATION","address":"GARE DE CALEVOET / KALEVOET STATION - CHEE D'ALSEMBERG / ALSEMBERGSESTEENWEG 1006","latitude":50.79158,"longitude":4.332669},{"number":23,"name":"023 - AGORA / AGORA","address":"AGORA - PLACE AGORA/AGORAPLEIN 120","latitude":50.846331,"longitude":4.355193},{"number":260,"name":"260 - TRITON","address":"TRITON - AVENUE DES ANCIENS COMBATTANTS - PISCINE / OUD-STRIJDERSLAAN - ZWEMBAD","latitude":50.86702,"longitude":4.406995},{"number":88,"name":"088 - WOESTE","address":"WOESTE - AVENUE NOTRE DAME DE LOURDES / ONZE-LIEVE-VROUW VAN LOURDESLAAN","latitude":50.873354,"longitude":4.334311},{"number":11,"name":"011 - SABLON / ZAVEL(FERMÉE - TRAVAUX STIB)","address":"FERMÉE - TRAVAUX STIB - SABLON/ZAVEL - RUE DE LA REGENCE/REGENTSCHAPSSTRAAT 20","latitude":50.8405,"longitude":4.356878},{"number":182,"name":"182 - BOILEAU","address":"BOILEAU - BOULEVARD SAINT MICHEL / SINT-MICHIELSLAAN","latitude":50.83168,"longitude":4.404769},{"number":264,"name":"264 - NOTRE DAME/ONZE LIEVE VROUW","address":"NOTRE DAME / ONZE LIEVE VROUW - AV NOTRE DAME 53 A 61 / ONZE LIEVE VROUWLAAN 53 TOT 61","latitude":50.870983,"longitude":4.397506},{"number":267,"name":"267 - GENEVE","address":"GENEVE - RUE DE GENEVE /  GENEVESTRAT 12","latitude":50.86171,"longitude":4.403147},{"number":147,"name":"147 - EMILE MAX LYCEE/LYCEUM EMILE MAX","address":"EMILE MAX LYCEE/LYCEUM EMILE MAX - CHAUSSEE D'HAECHT/ HAACHTSESTEENWEG 226 - 230","latitude":50.861874,"longitude":4.372146},{"number":145,"name":"145 - COTEAUX/WIJNHEUVELEN","address":"COTEAUX/WIJNHEUVELEN - AVENUE ROGIER / ROGIERLAAN 128","latitude":50.859096,"longitude":4.379117},{"number":148,"name":"148 - GARE MEISER/MEISER STATION","address":"GARE MEISER / MEISER STATION - AVENUE ROGIER/ ROGIERLAAN 377 - 379","latitude":50.855629,"longitude":4.394807},{"number":306,"name":"306 - HEMBEEK","address":"HEMBEEK - ANGLE AV DES CROIX DE FEU / VUURKRUISENLAAN 7-9","latitude":50.889603,"longitude":4.373967},{"number":204,"name":"204 - DUPUIS","address":"DUPUIS - BD SYLVAIN DUPUIS / SYLVAIN DUPUISLAAN 209-211-213","latitude":50.837326,"longitude":4.293932},{"number":230,"name":"230 - BERKENDAEL / BERKENDAAL","address":"BERKENDAEL / BERKENDAAL - AVENUE ALBERT / ALBERTLAAN 134","latitude":50.818382,"longitude":4.346061},{"number":239,"name":"239 - DARWIN","address":"DARWIN - AV. BRUGMANN / BRUGMANNLAAN 139-147","latitude":50.8187714,"longitude":4.350961},{"number":76,"name":"076 - PLACE VAN MEENEN/VAN MEENENPLEIN","address":"PLACE VAN MEENEN/VAN MEENENPLEIN - AV PAUL DEJAER (FACE 35 - 39) / PAUL DEJAERLAAN (TEGENOVER 35 - 39)","latitude":50.825749,"longitude":4.345165},{"number":70,"name":"070 - AURORE/DAGERAAD","address":"AURORE/DAGERAAD - AVENUE LOUISE/LOUIZALAAN 440","latitude":50.818113,"longitude":4.371446},{"number":202,"name":"202 - AUMALE","address":"AUMALE - RUE D'AUMALE / AUMALESTRAAT 339-341","latitude":50.839554,"longitude":4.312311},{"number":80,"name":"080 - CERES","address":"CERES - AV. F. ROOSEVELT/F. ROOSEVELTLAAN, 14","latitude":50.814852,"longitude":4.376794},{"number":299,"name":"299 - SAINT-ADRIEN","address":"SAINT-ADRIEN - AV DU PESAGE N°21","latitude":50.80941,"longitude":4.386541},{"number":331,"name":"331 - GEORGES HENRI","address":"GEORGES HENRI - AV GEORGES HENRI","latitude":50.842319,"longitude":4.406295},{"number":228,"name":"228 - ALTITUDE CENT / HOOGTE HONDERD","address":"ALTITUDE CENT / HOOGTE HONDERD - PLACE DE L'ALTITUDE 100 (FACE 31) / HOOGTE HONDERDPLEIN (TEGENOVER 31)","latitude":50.816525,"longitude":4.336212},{"number":355,"name":"355 - PARNASSE","address":"PARNASSE - RUE DU TRONE N°66 (CLOS PARNASSE)","latitude":50.837714,"longitude":4.369117},{"number":235,"name":"235 - FOREST NATIONAL / VORST NATIONAAL","address":"FOREST NATIONAL / VORST NATIONAAL - AV VICTOR ROUSSEAU DVT FOREST NATIONAL / VICTOR ROUSSEAU LAAN VOOR VORST NATIONAAL","latitude":50.810085,"longitude":4.324864},{"number":102,"name":"102 - MUSEUM/MUSEUM","address":"MUSEUM - CHAUSSEE DE WAVRE (FACE 229 - 233)  /  WAVERSESTEENWEG (TEGENOVER 229 - 233)","latitude":50.83579,"longitude":4.375782},{"number":105,"name":"105 - DE HENNIN","address":"DE HENNIN -  CHAUSSEE D'IXELLES/ELSENSE STEENWEG 254 - 260","latitude":50.829631,"longitude":4.3692},{"number":1,"name":"001 - LEOPOLD II","address":"LEOPOLD II - AVENUE DE TERVUREN FACE / TERVURENLAAN VOOR 218","latitude":50.836304,"longitude":4.41505},{"number":100,"name":"100 - GARE DE LUXEMBOURG/LUXEMBURGSTATION","address":"GARE DE LUXEMBOURG/LUXEMBURGSTATION - RUE DE TREVES / TRIERSTRAAT","latitude":50.838411,"longitude":4.37302},{"number":63,"name":"063 - JULES CESAR","address":"JULES CESAR - AVENUE DE TERVUREN DEVANT / TERVURENLAAN VOOR 278","latitude":50.834705,"longitude":4.421643},{"number":95,"name":"095 - PLACE BOCKSTAEL/BOCKSTAELPLAATS","address":"PLACE BOCKSTAEL/BOCKSTAELPLAATS - BLD EMILE BOCKSTAEL/EMILE BOCKSTAELLAAN 254","latitude":50.87808,"longitude":4.34793},{"number":45,"name":"045 - STEPHANIE/STEFANIA","address":"STEPHANIE/STEFANIA - AV LOUISE/LOUIZALAAN 61A-63-65","latitude":50.83308,"longitude":4.35743},{"number":207,"name":"207 - BIESTEBROECK / BIESTEBROEK","address":"BIESTEBROECK / BIESTEBROEK - CHEE DE MONS (FACE AU 518-526) / BERGENSESTEENWEG (TEGENOVER 518-526)","latitude":50.833424,"longitude":4.313378},{"number":127,"name":"127 - GRAY/GRAY (DÉMONTÉE POUR TRAVAUX)","address":"DÉMONTÉE POUR TRAVAUX - GRAY  -  RUE DES DEUX PONTS (FACE 4)/ TWEEBRUGGENSTRAAT (TEGENOVER 4)","latitude":50.832194,"longitude":4.377694},{"number":114,"name":"114 - SAISONS/JAARGETIJDEN","address":"SAISONS/JAARGETIJDEN  -  AVENUE DES SAISONS 2 / JAARGETIJDENLAAN 2","latitude":50.820391,"longitude":4.385358},{"number":185,"name":"185 - PERE DE DEKEN/PATER DE DEKEN","address":"PERE DE DEKEN/PATER DE DEKEN - RUE PÈRE DE DEKEN/ PATER DE DEKENSTRAAT 40","latitude":50.835797,"longitude":4.401599},{"number":348,"name":"348 - HANSEN-SOULIE","address":"HANSEN-SOULIE - AVENUE HANSEN-SOULIE 42","latitude":50.831078,"longitude":4.398546},{"number":31,"name":"031 - MUSEE DE LA BD / STRIPMUSEUM","address":"MUSEE DE LA BD/STRIPMUSEUM - BOULEVARD PACHECO/PACHECOLAAN","latitude":50.850303,"longitude":4.360706},{"number":19,"name":"019 - PLACE MORICHAR/MORICHARPLEIN","address":"PLACE MORICHAR / MORICHARPLEIN - RUE DES ETUDIANTS/ STUDENTENSTRAAT 32 - 34","latitude":50.827955,"longitude":4.347791},{"number":41,"name":"041 - SAINT-ROCH/SINT-ROCHUS","address":"SAINT ROCH/SINT-ROCHUS - CHAUSSEE D'ANVERS/ANTWERPSELAAN 37","latitude":50.859302,"longitude":4.35485},{"number":90,"name":"090 - BROUSTIN","address":"BROUSTIN - AV DE JETTE/ JETSELAAN 73 - 81","latitude":50.867448,"longitude":4.326807},{"number":256,"name":"256 - VAN OVERBEKE","address":"VAN OVERBEKE / AV VAN OVERBEKE / VAN OVERBEKELAAN","latitude":50.874767,"longitude":4.308977},{"number":342,"name":"342 - MAISON COMMUNALE DE BERCHEM ST AGHATE","address":"MAISON COMMUNALE DE BERCHEM ST AGHATE - AVENUE DU ROI ALBERT DVT 38","latitude":50.864761,"longitude":4.294429},{"number":175,"name":"175 - BEEKANT","address":"BEEKANT - BOULEVARD EDMOND MACHTENS / EDMOND MACHTENSLAAN","latitude":50.854166,"longitude":4.322948},{"number":338,"name":"338 - UCL","address":"UCL - AVENUE E.MOUNIER,40","latitude":50.851073,"longitude":4.452706},{"number":190,"name":"190 - TERDELT","address":"TERDELT - PLACE TERDELT / TERDELTPLEIN","latitude":50.867904,"longitude":4.390696},{"number":197,"name":"197 - DE SMET","address":"DE SMET - PLACE HENRI DE SMET / HENRI DE SMETPLEIN","latitude":50.848255,"longitude":4.314854},{"number":345,"name":"345 - 3 TILLEULS","address":"3 TILLEULS - AV DES ORTOLANS 2","latitude":50.802675,"longitude":4.412073},{"number":139,"name":"139 - LIEDTS","address":"LIEDTS - PLACE LIEDTS (FACE AU 38)/ LIEDTSPLEIN (TEGENOVER 38)","latitude":50.863872,"longitude":4.366741},{"number":58,"name":"058 - GARE DU NORD / NOORDSTATION","address":"GARE DU NORD/NOORDSTATION - PLACE DU NORD / NOORDPLAATS","latitude":50.859181,"longitude":4.35942},{"number":274,"name":"274 - CORHAY","address":"CORAY - CHEE DE GAND DEVANT 579-587 GENTSESTEENWEG VOOR 579-587","latitude":50.86002,"longitude":4.307502},{"number":135,"name":"135 - PARC LACROIX/LACROIX PARK","address":"PARC LACROIX / LACROIX PARK - AV PRINCESSE ELISABETH/PRINSES ELISABETHLAAN","latitude":50.872744,"longitude":4.376647},{"number":107,"name":"107 - DEFACQZ","address":"DEFACQZ - RUE DEFACQZ/ DEFACQZSTRAAT 25-27-29","latitude":50.827652,"longitude":4.359031},{"number":359,"name":"359 - JCDECAUX","address":"JCDecaux - ALLÉE VERTE 50 À 1000 BRUXELLES","latitude":50.867708,"longitude":4.357532},{"number":22,"name":"022 - JACQMAIN","address":"JACQMAIN - BLD. D'ANVERS / ANTWERPSELAAN 4","latitude":50.855969,"longitude":4.355657},{"number":334,"name":"334 - MARCEL THIRY","address":"MARCEL THIRY - AV MARCEL THIRY FACE 23","latitude":50.855593,"longitude":4.439625},{"number":50,"name":"050 - RIBAUCOURT","address":"RIBAUCOURT - BLD LEOPOLD II / LEOPOLD II-LAAN 121-123","latitude":50.860862,"longitude":4.339182},{"number":27,"name":"027 - SQUARE ALBERT I / ALBERT I SQUARE","address":"SQUARE ALBERT I / ALBERT I-SQUARE 25 - 26 - 27","latitude":50.838733,"longitude":4.32176},{"number":189,"name":"189 - PLACE VAN MEYEL/VAN MEYELPLEIN","address":"PLACE VAN MEYEL/VAN MEYELPLEIN","latitude":50.836924,"longitude":4.389073},{"number":179,"name":"179 - CELTES/KELTEN","address":"CELTES/KELTEN - AVENUE DE TERVUEREN (FACE AU 17) / TERVURENLAAN (TEGENOVER 17)","latitude":50.839217,"longitude":4.398015},{"number":164,"name":"164 - KENNIS","address":"KENNIS - BOULEVARD LAMBERMONT (20 M APRES 284)/LAMBERMONTLAAN   (20 M NA N° 284)","latitude":50.867643,"longitude":4.385817},{"number":241,"name":"241 - STATUAIRES/BEELDHOUWWERK","address":"STATUAIRES/BEELDHOUWWERK - AVENUE DE FRE/DE FRELAAN 62","latitude":50.803917,"longitude":4.349116},{"number":323,"name":"323 - CARENE","address":"CARENE - AV LEON GROSJEAN 79","latitude":50.855186,"longitude":4.415246},{"number":66,"name":"066 - SCHUMAN","address":"SCHUMAN - RUE DE LA LOI 170","latitude":50.843359,"longitude":4.379946},{"number":29,"name":"029 - BAUDOUIN / BOUDEWIJN","address":"BAUDOUIN/BOUDEWIJN - RUE DE LAEKEN / LAKENSESTRAAT","latitude":50.856584,"longitude":4.352877},{"number":212,"name":"212 - THEO LAMBERT","address":"THEO LAMBERT - BD THEO LAMBERT (FACE 60) / THEO LAMBERT LAAN (TEGENOVER 60)","latitude":50.827106,"longitude":4.2925},{"number":258,"name":"258 - LIBERTE (FERMÉE - TRAVAUX DE VOIRIE)","address":"FERMÉE - TRAVAUX DE VOIRIE - LIBERTE - AV DE LA LIBERTE, 44 / VRIJHEIDSLAAN,44","latitude":50.862152,"longitude":4.323353},{"number":307,"name":"307 - KAREL BOGAERT","address":"KAREL BOGAERT - BD EMILE BOCKSTAEL / EMILE BOCKSTAELLAAN 307","latitude":50.881889,"longitude":4.347448},{"number":294,"name":"294 - WIENER","address":"WIENER - PLACE WIENER 2 / WIENERPLAATS 2","latitude":50.798344,"longitude":4.419014},{"number":109,"name":"109 - CHATELAIN/KASTELEIN","address":"CHATELAIN/KASTELEIN - RUE DE L'AQUEDUC /AQUADUCTSTRAAT 115-117-119","latitude":50.824048,"longitude":4.359896},{"number":13,"name":"013 - LEMONNIER","address":"LEMONNIER - BLD. MAURICE LEMONNIER/DE MAURICE LEMONNIERLAAN 202-204-206","latitude":50.840184,"longitude":4.341324},{"number":214,"name":"214 - CAMPUS CERIA / CAMPUS VAN CERIA","address":"CAMPUS CERIA / CAMPUS VAN CERIA - AV EMILE GRYSON (FACE 6 a 10) / EMILE GRYSONLAAN (TEGENOVER 6 tot 10)","latitude":50.816002,"longitude":4.295121},{"number":86,"name":"086 - MAISON COMMUNALE DE JETTE GEMEENTEHUIS","address":"MAISON COMMUNALE DE JETTE / JETTE GEMEENTEHUIS - CHAUSSEE DE WEMMEL/WEMMELSESTEENWEG 102","latitude":50.876195,"longitude":4.324477},{"number":101,"name":"101 - ZELLIK","address":"ZELLIK - CHAUSSEE DE ZELLIK 4","latitude":50.869204,"longitude":4.291663},{"number":168,"name":"168 - HOPITAL FRANÇAIS/FRANS HOSPITAAL","address":"HOPITAL FRANÇAIS/FRANS HOSPITAAL - AVENUE JOS GOFFINLAAN 133-135","latitude":50.866379,"longitude":4.303281},{"number":279,"name":"279 - HOUBA BRUGMANN","address":"HOUBA BRUGMANN - AVENUE HOUBA DE STROOPER / HOUBA DE STROOPERLAAN","latitude":50.890181,"longitude":4.336962},{"number":234,"name":"234 - ST DENIS / ST DENIJS","address":"ST DENIS / ST DENIJS - PLACE ST DENIS FACE 68 / ST DENIJSPLAATS VOOR 68","latitude":50.809799,"longitude":4.317546},{"number":113,"name":"113 - ABBAYE DE LA CAMBRE / ABDIJ TER KAMEREN","address":"ABBAYE DE LA CAMBRE/ABDIJ TER KAMEREN - AVENUE EMILE DURAY (FACE AU N° 2) /EMILE DURAYLAAN (TEGENOVER N° 2)","latitude":50.820042,"longitude":4.374785},{"number":140,"name":"140 - AZALEES/AZALEA","address":"AZALEES / AZALEA -   AVENUE PAUL DESCHANEL/LAAN FACE/TEGENOVER N°  6-8","latitude":50.862704,"longitude":4.381289},{"number":199,"name":"199 - HENRI REY (FERMÉE)","address":"FERMÉE - DÉPLACEMENT STATIONHENRI REY - BD FELIX PAULSEN / FELIX PAULSENLAAN 3-5-7-9","latitude":50.843693,"longitude":4.304986},{"number":18,"name":"018 - GUTENBERG / GUTENBERG","address":"GUTENBERG - SQUARE GUTENBERG (FACE N° 5)/GUTENBERGSSQUARE (TEGENOVER N° 5)","latitude":50.84771,"longitude":4.377552},{"number":123,"name":"123 - BASCULE","address":"BASCULE -  CHAUSSEE DE VLEURGAT (DEVANT 215 - 217) / VLEURGATSESTEENWEG  (N° 215 - 217)","latitude":50.817507,"longitude":4.366498},{"number":265,"name":"265 - EVERE SHOPPING","address":"EVERE SHOPPING - AV DES LOISIRS / VRIJETIJDSLAAN","latitude":50.867241,"longitude":4.40287},{"number":335,"name":"335 - THIRY","address":"THIRY - BD DE LA WOLUWE DVT 100","latitude":50.854231,"longitude":4.444034},{"number":87,"name":"087 - MIROIR/SPIEGEL","address":"MIROIR/SPIEGEL - AVENUE DE LAEKEN (FACE 36) / LAKENSE LAAN (TEGENOVER 36)","latitude":50.871391,"longitude":4.323914},{"number":332,"name":"332 - VERGOTE","address":"VERGOTE - BD BRAND WHITLOK","latitude":50.845229,"longitude":4.404311},{"number":221,"name":"221 - CURIE","address":"CURIE - SQUARE MARIE CURIE (FACE 30) / MARIE CURIE SQUARE (TEGENOVER 30)","latitude":50.821846,"longitude":4.284394},{"number":143,"name":"143 - RTL","address":"RTL  - CHAUSSEE DE LOUVAIN (DVT 770)/ LEUVENSE STEENWEG (N° 770)","latitude":50.857218,"longitude":4.407879},{"number":217,"name":"217 - BIZET","address":"BIZET - PLACE BIZET (face 11 a 19) / BIZETPLEIN (TEGENOVER 11 tot 19)","latitude":50.824913,"longitude":4.297248},{"number":144,"name":"144 - SAINTE-MARIE/SINTE-MARIA","address":"SAINTE MARIE/SINTE-MARIA - RUE ROYALE/ KONINGSSTRAAT 257 - 259","latitude":50.85778,"longitude":4.368144},{"number":293,"name":"293 - KEYM","address":"KEYM - AVENUE DU COLVERT","latitude":50.810528,"longitude":4.40231},{"number":119,"name":"119 - PAQUOT/PACQUOT","address":"PAQUOT -  RUE JEAN PAQUOT (44 A 48) /JEAN PAQUOTSTRAAT (44 T.E.M 48)","latitude":50.82559,"longitude":4.379555},{"number":9,"name":"009 - ANNEESSENS","address":"ANNEESSENS - BLD MAURICE LEMONNIER/MAURICE LEMONNIERLAAN 42-44-46","latitude":50.844045,"longitude":4.345048},{"number":173,"name":"173 - BICHON","address":"BICHON - PLACE BICHON / BICHONPLEIN","latitude":50.864656,"longitude":4.394448},{"number":224,"name":"224 - ROCHEFORT","address":"ROCHEFORT - AV. WIELEMANS CEUPPENS LAAN 184-190","latitude":50.824352,"longitude":4.334465},{"number":317,"name":"317 - GEYSKENS","address":"GEYSKENS - AVENUE ISIDORE GEYSKENSLAAN FACE/TEGENOVER 108","latitude":50.819546,"longitude":4.421198},{"number":315,"name":"315 - SACRE COEUR AUDERGHEM/HEILIGE HART OUDERGHEM","address":"SACRE COEUR AUDERGHEM / HEILIGE HART OUDERGHEM - SQUARE DU SACREE CŒUR / HEILIG-HARTSQUARE","latitude":50.810322,"longitude":4.435789},{"number":92,"name":"092 - LENOIR","address":"LENOIR - BLD DE SMET DE NAEYER/DE SMET DE NAEYERLAAN 187 - 189","latitude":50.875826,"longitude":4.329921},{"number":124,"name":"124 - CHARLES GRAUX","address":"CHARLES GRAUX - CHAUSSEE DE WATERLOO (DEVANT N° 585 - 587)/ WATERLOOSESTEENWEG (N° 585 - 587)","latitude":50.818283,"longitude":4.363568},{"number":283,"name":"283 - PISCINE / ZWEMBAD","address":"PISCINE / ZWEMBAD - RUE DE LOMBARTZYDE / LOMBARDSIJDESTRAAT","latitude":50.893158,"longitude":4.376931},{"number":222,"name":"222 - MERCKX","address":"MERCKX - ROUTE DE LENNIK / LENNIKSEBAAN","latitude":50.817162,"longitude":4.280012},{"number":81,"name":"081 - PONT BOCKSTAEL/BRUG BOCKSTAEL","address":"PONT BOCKSTAEL/BRUG BOCKSTAEL - BLD EMILE BOCKSTAEL/EMILE BOCKSTAELLAAN 5","latitude":50.870259,"longitude":4.343195},{"number":116,"name":"116 - ULB PLAINE","address":"ULB PLAINE - BOULEVARD DE LA PLAINE  (ENTREE ULB) / PLEINLAAN (INGANG VUB)","latitude":50.818253,"longitude":4.395749},{"number":309,"name":"309 - SQUARE DU CENTENAIRE (FERMÉE - TRAVAUX)","address":"FERMÉE - TRAVAUX DE VOIRIE - SQUARE DU CENTENAIRE / EEUWFEESTSQUARE- SQUARE DU CENTENAIRE","latitude":50.87521,"longitude":4.317954},{"number":281,"name":"281 - ATOMIUM","address":"ATOMIUM - BOULEVARD DU CENTENAIRE / EEUWFEESTLAAN","latitude":50.895485,"longitude":4.341311},{"number":67,"name":"067 - PARC CINQUANTENAIRE / JUBELPARK","address":"PARC CINQUANTENAIRE/JUBELPARK - AVENUE D'AUDERGHEM/OUDERGEMSESTEENWEG 45","latitude":50.83975,"longitude":4.385426},{"number":138,"name":"138 - HOUFFALIZE","address":"HOUFFALIZE - PLACE DE HOUFFALIZE /HOUFFALIZEPLEIN 58","latitude":50.865218,"longitude":4.377735},{"number":347,"name":"347 - ERASME","address":"ERASME - ROUTE DE LENNIK N°808","latitude":50.81482,"longitude":4.26534},{"number":292,"name":"292 - RITTWEGER (FERMÉE - TRAVAUX DE VOIRIE)","address":"FERMÉE - TRAVAUX DE VOIRIE - RITTWEGER - RUE RITTWEGER 6-8 / RITTWEGERSTRAAT 6-8","latitude":50.797739,"longitude":4.336083},{"number":313,"name":"313 - DEMEY","address":"DEMEY - INTERSECTION BD INVALIDENLAAN / AV LOUIS DEHOUXLAAN","latitude":50.814958,"longitude":4.416987},{"number":78,"name":"078 - DUC PETIAUX","address":"DUC PETIAUX - CHAUSSEE DE WATERLOO/ WATERLOOSESTEENWEG 376 - 370","latitude":50.823699,"longitude":4.351623},{"number":327,"name":"327 - SIBELGA","address":"SIBELGA - QUAI DES USINES / WERKHUIZENKAAI 16","latitude":50.874082,"longitude":4.362205},{"number":73,"name":"073 - VLEURGAT","address":"VLEURGAT - AVENUE LOUISE/LOUIZALAAN 300","latitude":50.823898,"longitude":4.367752},{"number":136,"name":"136 - PAVILLON/PAVILJOEN","address":"PAVILLON/PAVILJOEN - PLACE PAVILLON /PAVILJOENPLAATS 92-94-96","latitude":50.869809,"longitude":4.371808},{"number":128,"name":"128 - MUSEE DU TRAM","address":"MUSEE DU TRAM - AVENUE DE TERVUREN / TERVURENLAAN","latitude":50.832355,"longitude":4.432358},{"number":117,"name":"117 - CIMETIERE D'IXELLES/BEGRAAFPLAATS VAN ELSENE","address":"CIMETIERE D'IXELLES / BEGRAAFPLAATS VAN ELSENE - AVENUE DE LA COURONNE/KROONLAAN 449","latitude":50.816029,"longitude":4.391006},{"number":268,"name":"268 - DUNANT","address":"DUNANT - AV HENRI DUNANT / HENRI DUNANTLAAN","latitude":50.862808,"longitude":4.410791},{"number":357,"name":"357 - AVIATION","address":"AVIATION - INTERSECTION AVENUE DE L'AVIATION ET AVENUE ORBAN","latitude":50.834634,"longitude":4.456746},{"number":297,"name":"297 - TEN REUKEN","address":"TEN REUKEN - BD DU SOUVERAIN FACE 76","latitude":50.804455,"longitude":4.426369},{"number":7,"name":"007 - PARC / PARK","address":"PARC/PARK - RUE ROYALE  (FACE N°66-68)/KONINGSSTRAAT (TEGENOVER N°66-68)","latitude":50.846319,"longitude":4.362244},{"number":272,"name":"272 - SCHEUTBOS","address":"SCHEUTBOS - BD METTEWIE/LAAN FACE/VOOR 419","latitude":50.850845,"longitude":4.299659},{"number":220,"name":"220 - LUTHER KING","address":"LUTHER KING - BD MAURICE CAREME 30 / MAURICE CAREMELAAN 30","latitude":50.825706,"longitude":4.288377},{"number":89,"name":"089 - ATHENEE DE JETTE/ATHENEUM VAN JETTE","address":"ATHENEE DE JETTE/ATHENEUM VAN JETTE - AVENUE DE LEVIS MIREPOIX / DE LEVIS MIREPOIXLAAN 100","latitude":50.8711927450574,"longitude":4.32992476563641},{"number":4,"name":"004 - JARDIN AUX FLEURS / BLOEMENHOF","address":"JARDIN AUX FLEURS/BLOEMENHOF - PLACE DU JARDIN AUX FLEURS/BLOEMENHOFPLEIN - RUE DES 6 JETONS/ZES PENNIGENSTRAAT 71","latitude":50.847976,"longitude":4.343696},{"number":289,"name":"289 - SQUARE GEORGES MARLOWSQUARE","address":"SQUARE GEORGES MARLOWSQUARE - SQUARE MARLOW FACE 3-4-5 / MARLOWSQUARE VOOR 3-4-5","latitude":50.801594,"longitude":4.340061},{"number":56,"name":"056 - ARCHIMEDE / ARCHIMEDES","address":"ARCHIMEDE / ARCHIMEDES - RUE ARCHIMEDE/ARCHIMEDESSTRAAT 58-64","latitude":50.845817,"longitude":4.383722},{"number":77,"name":"077 - PAUL JANSON","address":"PAUL JANSON - CHAUSSEE DE CHARLEROI/ CHARLEROISESTEENWEG 159","latitude":50.827399,"longitude":4.355281},{"number":276,"name":"276 - CROIX DE GUERRES / OORLOGSKRUISEN","address":"CROIX DE GUERRES / OORLOGSKRUISEN - AVENUE DES CROIX DE GUERRE / OORLOGSKRUISENLAAN 116","latitude":50.889748,"longitude":4.380755},{"number":167,"name":"167 - CHARLES V/KAREL V","address":"CHARLES V/KAREL V - AVENUE CHARLES QUINT/KEIZER KARELLAAN 129-131","latitude":50.869032,"longitude":4.309731},{"number":154,"name":"154 - PLASKY/PLASKY","address":"PLASKY - SQUARE EUGENE PLASKY (FACE 100) / EUGENE PLASKYSQUARE (TEGENOVER 100)","latitude":50.851241,"longitude":4.396386},{"number":225,"name":"225 - PLACE ALBERT PLEIN","address":"PLACE ALBERT/PLEIN - PLACE ALBERT / ALBERTPLEIN","latitude":50.821117,"longitude":4.342008},{"number":150,"name":"150 - MEISER/MEISER","address":"MEISER - PLACE GENERAL MEISER (FACE 1 - 3) / GENERAAL MEISERPLEIN (TEGENOVER 1 - 3)","latitude":50.854654,"longitude":4.398451},{"number":97,"name":"097 - KARREVELD","address":"KARREVELD - CHAUSSEE DE GAND/ GENTSESTEENWEG 1-3","latitude":50.858058,"longitude":4.318689},{"number":60,"name":"060 - ST-LAZARE/ST LAZARUS","address":"ST-LAZARE/SINT-LAZARUS   -   BLD SAINT-LAZARE/SINT-LAZARUSLAAN 4 -10","latitude":50.856714,"longitude":4.362106},{"number":130,"name":"130 - ROND POINT DU SOUVERAIN","address":"ROND POINT DU SOUVERAIN - BOULEVARD DU SOUVERAIN FACE / VORSTLAAN VOOR 207","latitude":50.820244,"longitude":4.430081},{"number":298,"name":"298 - HALL DES SPORTS","address":"HALL DES SPORTS - AV DES 9 PROVINCES / 9 PROVINCIES LAAN / RUE VANDERVEKEN/STRAAT","latitude":50.877037,"longitude":4.300847},{"number":353,"name":"353 - BEAULIEU","address":"BEAULIEU - RUE JULES COCKX / JULES COCKXSTRAAT","latitude":50.815681,"longitude":4.40812},{"number":24,"name":"024 - ROGIER / ROGIER","address":"ROGIER - BOULEVARD DU JARDIN BOTANIQUE/KRUIDTUINLAAN","latitude":50.855268,"longitude":4.358717},{"number":55,"name":"055 - BOTANIQUE/KRUIDTUIN","address":"BOTANIQUE/KRUIDTUIN - AVENUE GALILEE/GALILEELAAN","latitude":50.853248,"longitude":4.366188},{"number":285,"name":"285 - COGHEN","address":"COGHEN - AV COGHEN 1 A 5 / COGHENSTRAAT 1 TOT 5","latitude":50.813469,"longitude":4.338951},{"number":170,"name":"170 - RIGA","address":"RIGA - SQUARE FRANCOIS RIGA / FRANCOIS RIGASQUARE","latitude":50.87453,"longitude":4.385378},{"number":311,"name":"311 - DELTA","address":"DELTA - BD DES INVALIDES / INVALIDENLAAN","latitude":50.818456,"longitude":4.40349},{"number":249,"name":"249 - SAINT-JOB/SINT-JOB","address":"SAINT-JOB/SINT JOB - PLACE SAINT JOB/SINT-JOB PLEIN","latitude":50.794186,"longitude":4.366336},{"number":181,"name":"181 - LOUIS TITZ","address":"LOUIS TITZ - AVENUE DE LA CHASSE/ JACHTLAAN 182 - 184","latitude":50.835723,"longitude":4.394395},{"number":291,"name":"291 - DECROLY","address":"DECROLY - RUE GATTI DE GAMMOND / GATTI DE GAMMOND STRAAT","latitude":50.804661,"longitude":4.327886},{"number":165,"name":"165 - CIMETIERE DE JETTE / KERKHOF JETTE","address":"CIMETIERE DE JETTE / KERKHOF JETTE - BLD DE SMET DE NAEYER (FACE AU 322)/ DE SMET DE NAEYERSTRAAT (TEGENOVER 322)","latitude":50.879668,"longitude":4.33425},{"number":3,"name":"003 - PORTE DE FLANDRE / VLAAMSEPOORT","address":"PORTE DE FLANDRE/VLAAMSEPOORT - BLD DE NIEUPORT/NIEUWPOORTLAAN 1","latitude":50.853203,"longitude":4.341823},{"number":188,"name":"188 - OSSEGHEM","address":"OSSEGHEM -  AVENUE MAHATMA GANDHI/ MAHATMA GANDHILAAN 10","latitude":50.857235,"longitude":4.324354},{"number":304,"name":"304 - ARAUCARIA","address":"ARAUCARIA - AV DES CROIX DE FEU DEV 221C","latitude":50.893497,"longitude":4.363297},{"number":193,"name":"193 - GARE DE L'OUEST","address":"GARE DE L'OUEST - CHEE DE NINOVE 207,209 / NINOOFSESTEENWEG 207,209","latitude":50.848866,"longitude":4.320628},{"number":262,"name":"262 - PLACE DE LA PAIX/VREDEPLAIN","address":"PLACE DE LA PAIX / VREDEPLAIN - PLACE DE LA PAIX FACE 24 / VREDEPLEIN VOOR 24","latitude":50.87693,"longitude":4.400722},{"number":156,"name":"156 - JAMBLINE DE MEUX/JAMBLINNE DE MEUX","address":"JAMBLINE DE MEUX - PLACE JAMBLINNE DE MEUX / JAMBLINNE DE MEUXPLEIN 43 - 44 - 45","latitude":50.847158,"longitude":4.393255},{"number":287,"name":"287 - FLOREAL","address":"FLOREAL - AV BRUGMANN 359 / BRUGMANNLAAN 359","latitude":50.809334,"longitude":4.345243},{"number":26,"name":"026 - VAN LINT","address":"VAN LINT - RUE VAN LINT/ VAN LINTSTRAAT 6 - 8","latitude":50.839413,"longitude":4.328914},{"number":104,"name":"104 - FERNAND COCQ","address":"FERNAND COCQ - PLACE FERNAND COCQ (FACE AU 19-23) / FERNAND COCQPLEIN (TEGENOVER 19 - 23) (FERMÉE)","latitude":50.833304,"longitude":4.366611},{"number":273,"name":"273 - TAMARIS","address":"TAMARIS - BD METTEWIE LAAN VOOR/FACE 71","latitude":50.854824,"longitude":4.306209},{"number":72,"name":"072 - ULB SOLBOSCH / VUB  SOLBOSCH(FERMÉE-TRAVAUX)","address":"FERMÉE-TRAVAUX STIB - ULB SOLBOSCH / VUB SOLBOSCH - AV. F.ROOSEVELT/F.ROOSEVELTLAAN 19","latitude":50.812489,"longitude":4.379203},{"number":277,"name":"277 - VAN PRAET","address":"VAN PRAET - AVENUE VAN PRAET / VAN PRAETLAAN","latitude":50.881588,"longitude":4.373817},{"number":103,"name":"103 - ERNEST SOLVAY(DÉMONTÉE - TRAVAUX DE VOIRIE)","address":"DÉMONTÉE - TRAVAUX DE VOIRIE - ERNEST SOLVAY - RUE DE L'ARBRE BENIT/GEWIJDE BOOMSTRAAT 2-4-6","latitude":50.834792,"longitude":4.364115},{"number":85,"name":"085 - ETANGS NOIRS/ZWARTE VIJVERS","address":"ETANGS NOIRS /ZWARTE VIJVERS - CHEE DE GAND/STEENWEG OP GENT","latitude":50.8572655240874,"longitude":4.33236837868758},{"number":330,"name":"330 - VANDERVELDE","address":"VANDERVELDE - AVENUE EMILE VANDERVELDE 90","latitude":50.847546,"longitude":4.450015},{"number":126,"name":"126 - FABRY","address":"FABRY - BOULEVARD DE LA WOLUWE / WOLUWELAAN 28","latitude":50.837288,"longitude":4.43462},{"number":269,"name":"269 - CICERON","address":"CICERON - CHAUSSE DE LOUVAIN / LEUVENSESTEENWEG1166","latitude":50.860859,"longitude":4.421375},{"number":245,"name":"245 - HAMOIR","address":"CHEE DE WATERLOO/WATERLOOSESTEENWEG 1050","latitude":50.798988,"longitude":4.375581},{"number":343,"name":"343 - VANDENDRIESCH","address":"VANDENDRIESCH - RUE J-B VANDENDRIESCH 22-24","latitude":50.861788,"longitude":4.292913},{"number":223,"name":"223 - WIELS (FERMÉE - EN RÉPARATION)","address":"FERMÉE - EN RÉPARATION - WIELS - AV.WIELEMANS CEUPPENS/LAAN 7","latitude":50.824055,"longitude":4.326376},{"number":351,"name":"351 - ULB","address":"ULB - AV BUYL CROISEMENT AV DE L'UNIVERSITE (DEVANT L'ULB)","latitude":50.813724,"longitude":4.384205},{"number":30,"name":"030 - LAEKEN / LAKEN","address":"LAEKEN/LAKEN - RUE DE LAEKEN (ENTRE N° 119 ET 109) / LAKENSESTRAAT (TUSSEN N° 119 EN 109)","latitude":50.853666,"longitude":4.351771},{"number":68,"name":"068 - JEAN REY","address":"JEAN REY - PLACE JEAN REY/JEAN REYPLAATS","latitude":50.840282,"longitude":4.380131},{"number":349,"name":"349 - FONSNY","address":"FONSNY - AVENUE FONSNY EN FACE DES DEBOUCHES DES RUES COENRAETS ET J. CLAES","latitude":50.833444,"longitude":4.334857},{"number":233,"name":"233 - PARC DUDEN / DUDEN PARK","address":"PARC DUDEN / DUDEN PARK - AV VICTOR ROUSSEAU FACE 132 / VICTOR ROUSSEAULAAN VOOR 132","latitude":50.813858,"longitude":4.330992},{"number":37,"name":"037 - POELAERT / POELAERT","address":"POELAERT - PLACE POELAERT/POELAERTPLEIN 3","latitude":50.83795,"longitude":4.353019},{"number":59,"name":"059 - PLACE ST-JOSSE/ST JOOSTPLEIN","address":"PLACE ST-JOSSE/ST-JOOSTPLEIN  -  RUE WILLEMS (FACE 5 - 11) / WILLEMSSTRAAT (TEGENOVER 5 - 11)","latitude":50.849681,"longitude":4.375312},{"number":229,"name":"229 - ZAMAN FOREST NATIONAL/ZAMAN VORST NATIONAAL","address":"ZAMAN FOREST NATIONAL/ZAMAN VORST NATIONAAL - AV VAN VOLXEM 2 / VAN VOLXEMLAAN 2","latitude":50.813587,"longitude":4.324681},{"number":303,"name":"303 - VIEUX TILLEUL","address":"VIEUX TILLEUL - AV DU BOIS DE LA CAMBRE FACE 113","latitude":50.807903,"longitude":4.392756},{"number":141,"name":"141 - GARE DU NORD/NOORDSTATION","address":"GARE DU NORD/NOORDSTATION - PLACE SIMON BOLIVAR/ SIMON BOLIVARLAAN","latitude":50.860652,"longitude":4.358116},{"number":321,"name":"321 - SACRE-CŒUR DE/HEILIGE HART VAN JETTE","address":"FERMÉE - SACRE-CŒUR DE JETTE/HEILIGE HART VAN JETTE - AVENUE DU SACREE CŒUR FACE 71 A 79/HEILIGE HARTLAAN VOOR 71 TOT 79","latitude":50.884251,"longitude":4.330287},{"number":133,"name":"133 - CHÂTEAU/KASTEEL","address":"CHATEAU-KASTEEL - AVENUE DU CHÂTEAU/KASTEELLAAN","latitude":50.866795,"longitude":4.3092224},{"number":187,"name":"187 - ARSENAL/ARSENAAL","address":"ARSENAL/ARSENAAL - BOULEVARD LOUIS SCHMIDT/ LOUIS SCHMIDTLAAN 2","latitude":50.826603,"longitude":4.397117},{"number":252,"name":"252 - BEMPT","address":"BEMPT - CH DE NEERSTALLE DEVANT 333-335-337 / NEERSTALLESESTEENWEG 333-335-337","latitude":50.802563,"longitude":4.315701},{"number":318,"name":"318 - CARDINAL MERCIER / KARDINAAL MERCIER","address":"CARDINAL MERCIER / KARDINAAL MERCIER - PLACE CARDINAL MERCIER / KARDINAAL MERCIER PLEIN 6","latitude":50.880539,"longitude":4.32823},{"number":206,"name":"206 - SAINT-GUIDON / SINT GUIDO","address":"SAINT GUIDON / SINT GUIDO - AV PAUL JANSON (FACE AU 34-28) / PAUL JANSONLAAN (TEGENOVER 34-28)","latitude":50.834755,"longitude":4.305962},{"number":152,"name":"152 - PLACE DAILLY/DAILLYPLEIN","address":"PLACE DAILLY / DAILLYPLEIN - PLACE DAILLY / DAILLYPLEIN 24 - 25","latitude":50.852389,"longitude":4.387373},{"number":261,"name":"261 - CONSCIENCE","address":"CONSCIENCE - AVENUE HENRI CONSCIENCE / HENRI CONSCIENCELAAN 83","latitude":50.86879,"longitude":4.399587},{"number":198,"name":"198 - SCHEUT","address":"SCHEUT - CHEE DE NINOVE (FACE 441) / NINOOFSESTEENWEG (TEGENOVER 441)","latitude":50.847649,"longitude":4.307714},{"number":201,"name":"201 - PETERBOS","address":"PETERBOS - BD MARIA GROENINCKX DE MAY (FACE 26) / MARIA GROENINCKX DE MAYLAAN (TEGENOVER 26)","latitude":50.842667,"longitude":4.295939},{"number":149,"name":"149 - JULES LEBRUN","address":"JULES LEBRUN - CHAUSSEE DE LOUVAIN (FACE 593) / LEUVENSE STEENWEG (TEGENOVER 593)","latitude":50.856208,"longitude":4.403386},{"number":295,"name":"295 - COIN DU BALAI","address":"COIN DU BALAI - AV DE LA FORESTERIE","latitude":50.793682,"longitude":4.418497},{"number":253,"name":"253 - REINE FABIOLA/KONINGIN FABIOLA(FERMÉE-TVX)","address":"FERMÉE - TRAVAUX - REINE FABIOLA / KONINGIN FABIOLA - AV PIETER GODEFROY / PIETER GODEFROYLAAN","latitude":50.872475,"longitude":4.314266},{"number":91,"name":"091 - BELGICA","address":"BELGICA - PLACE WERRIE/ WERRIEPLEIN 24","latitude":50.867773,"longitude":4.335217},{"number":62,"name":"062 - CORTENBERGH / KORTENBERG","address":"CORTENBERGH / KORTENBERG - AVENUE D'AUDERGHEM 1 - 9 /OUDERGHEMLAAN 1-9","latitude":50.84177,"longitude":4.38418},{"number":325,"name":"325 - HANKAR","address":"HANKAR - CHEE DE WAVRE / WAVERSESTEENWEG 1208","latitude":50.821735,"longitude":4.405622},{"number":15,"name":"015 - MONTGOMERY","address":"MONTGOMERY - AVENUE DE TERVUREN / TERVURENLAAN 136-138","latitude":50.837036,"longitude":4.406826},{"number":171,"name":"171 - PISCINE LOUIS NAMECHE ZWEMBAD","address":"PISCINE LOUIS NAMECHE ZWEMBAD - RUE CHARLES MALISSTRAAT / PARKING PISCINE / ZWEMBAD PARKING","latitude":50.854789,"longitude":4.312201},{"number":215,"name":"215 - CUREGHEM / KUREGEM","address":"CUREGHEM / KUREGEM - AV RAYMOND VANDER BRUGGEN / VANDEN BRUGGENLAAN","latitude":50.836864,"longitude":4.317321},{"number":137,"name":"137 - MAISON COMMUNALE DE SCHAERBEEK","address":"MAISON COMMUNALE DE SCHAERBEEK / SCHAARBEEK GEMEENTEHUIS - RUE ROYALE SAINTE MARIE/KONINKLIJKE SINTE-MARIASTRAAT 241-243-245","latitude":50.86661,"longitude":4.373102},{"number":106,"name":"106 - GERMOIR/MOUTERIJ","address":"GERMOIR/MOUTERIJ - AVENUE DE LA COURONNE/KROONLAAN 92-94-96","latitude":50.830012,"longitude":4.378625},{"number":360,"name":"360 - STOCKEL/STOKKEL","address":"STOCKEL/STOKKEL - AVENUE D'OPHEMLAAN, 1-3","latitude":50.84157,"longitude":4.46577},{"number":121,"name":"121 - ETANGS / VIJVERS","address":"ETANGS / VIJVERS - RUE GUILLAUME STOCQ (FACE AU N° 1-3-5)/ GUILLAUME STOCQSTRAAT (TEGENOVER N° 1-3-5)","latitude":50.823986,"longitude":4.37379},{"number":257,"name":"257 - PL MARGHERITE D'AUTRICHE / MARGARETHA VAN OO","address":"PLACE MARGHERITE D'AUTRICHE / MARGARETHA VAN OOSTENRIJKPLEIN","latitude":50.872169,"longitude":4.298216},{"number":238,"name":"238 - UNION SAINT-GILLOISE / SINT-GILLIS UNIE","address":"UNION SAINT-GILLOISE / SINT-GILLIS UNIE - CH DE BRUXELLES 366-362 / BRUSSELSESTEENWEG 366-362","latitude":50.820278,"longitude":4.330802},{"number":226,"name":"226 - UNION/UNIE","address":"UNION/UNIE - BD DE LA DEUXIEME ARMEE BRITANNIQUE / BRITS TWEEDELEGERLAAN 8 - 2","latitude":50.819939,"longitude":4.325277},{"number":75,"name":"075 - GENERAL BARON/GENERAAL BARON","address":"GENERAL BARON/GENERAAL BARON - AV DU PARC / PARKLAAN 51 - 55","latitude":50.825888,"longitude":4.340388},{"number":65,"name":"065 - PARVIS DE ST GILLES","address":"PARVIS DE ST GILLES/ST-GILLISVOORPLEIN - CHAUSSEE DE WATERLOO/ WATERLOOSESTEENWEG 65-69","latitude":50.829985,"longitude":4.344557},{"number":151,"name":"151 - LOUVAIN 488-494/LEUVEN 488-494","address":"LOUVAIN / LEUVEN - CHAUSSEE DE LOUVAIN - LEUVENSESTEENWEG  488-494","latitude":50.853518,"longitude":4.392491},{"number":61,"name":"061 - MAELBEEK / MAALBEEK","address":"MAELBEEK/MAALBEEK - CHAUSSEE D'ETTERBEEK/ETTERBEEKSESTEENWEG 15","latitude":50.843836,"longitude":4.378002},{"number":237,"name":"237 - PARVIS ST ANTOINE","address":"PARVIS ST ANTOINE / ST ANTONIUS VOORPLEIN - RUE DE MERODE/MERODESTRAAT 290","latitude":50.827972,"longitude":4.330705},{"number":210,"name":"210 - MARIUS RENARD","address":"MARIUS RENARD - AV CHARLES DE TOLLENAERE (FACE 60) - CHARLES DE TOLLENAERELAAN (TEGENOVER 60)","latitude":50.827873,"longitude":4.288707},{"number":177,"name":"177 - CHASSEURS ARDENNAIS/ARDENSE JAGERS","address":"CHASSEURS ARDENNAIS/ARDENSE JAGERSPLEIN - RUE DU NOYER 81-87 /NOTELAARSSTRAAT 81-87","latitude":50.849409,"longitude":4.389263},{"number":115,"name":"115 - PETITE SUISSE/KLEIN ZWITSERLAND","address":"PETITE SUISSE / KLEIN ZWITSERLAND - PLACE DE LA PETITE SUISSE (FACE 16-18) / KLEIN ZWITSERLANDPLEIN (TEGENOVER 16 - 18)","latitude":50.817775,"longitude":4.384971},{"number":247,"name":"247 - STALLE","address":"STALLE - RUE DE STALLE PROLONGEE/VERLENGDE STALLESTRAAT","latitude":50.79586,"longitude":4.32058},{"number":205,"name":"205 - DE LINDE","address":"DE LINDE - PLACE DE LINDE 22 / DE LINDEPLEIN 22","latitude":50.835503,"longitude":4.299573},{"number":352,"name":"352 - ROUGE-CLOÎTRE / ROOD-KLOOSTER","address":"ROUGE-CLOÎTRE - RUE DU ROUGE-CLOÎTRE (PARKING CENTRE D'ART) / ROOD-KLOOSTERSTRAAT (PARKING KUNSTENCENTRUM)","latitude":50.814264,"longitude":4.443479},{"number":328,"name":"328 - HEYDENBERG","address":"HEYDENBERG - AV HEYDENBERG FACE 99-101","latitude":50.849988,"longitude":4.417064},{"number":10,"name":"010 - CHAPELLE / KAPEL","address":"CHAPELLE/KAPEL - PLACE DE LA CHAPELLE/KAPELLEPLEIN","latitude":50.841345,"longitude":4.351729},{"number":203,"name":"203 - DEMOSTHENE (FERMÉE)","address":"FERMÉE - DÉPLACEMENT STATION - DEMOSTHENE - BD PRINCE DE LIEGE / PRINS VAN LUIKLAAN 216-218-220","latitude":50.84045,"longitude":4.305055},{"number":118,"name":"118 - SCHWEITZER","address":"SCHWEITZER - PLACE DOCTEUR SCHWEITZER","latitude":50.864622,"longitude":4.297878},{"number":240,"name":"240 - VANDERKINDERE","address":"VANDERKINDERE - AVENUE ALBERT/ALBERTLAAN N° 272","latitude":50.81418,"longitude":4.347721},{"number":74,"name":"074 - PLACE LOIX/LOIXPLEIN","address":"PLACE LOIX/LOIXPLEIN - RUE BERCKMANS/ BERCKMANSSTRAAT 78 - 84","latitude":50.831936,"longitude":4.353037},{"number":232,"name":"232 - DOMAINE / DOMEIN","address":"DOMAINE / DOMEIN - AV DU DOMAINE (FACE 150) / DOMEINELAAN (VOOR 150)","latitude":50.810875,"longitude":4.329158},{"number":161,"name":"161 - DEMOLDER","address":"DEMOLDER - AVENUE EUGENE DEMOLDER / EUGENE DEMOLDERLAAN 68","latitude":50.872592,"longitude":4.379886},{"number":131,"name":"131 - JARDIN MASSART","address":"JARDIN MASSART - AV HERMANN DEBROUXLAAN","latitude":50.81329,"longitude":4.434751},{"number":158,"name":"158 - VAN YSENDIJCK","address":"VAN YSENDIJCK - AVENUE VOLTAIRE (FACE 6) / VOLTAIRELAAN (TEGENOVER 6)","latitude":50.867955,"longitude":4.379577},{"number":312,"name":"312 - CENTRE CULTUREL / CULTUREEL CENTRUM","address":"CENTRE CULTUREL / CULTUREEL CENTRUM - BD DU SOUVERAIN FACE 282 / VORSTLAAN VOOR 282","latitude":50.816948,"longitude":4.426551},{"number":310,"name":"310 - SAINT-VINCENT / SINT-VINCENTIUS","address":"SAINT VINCENT / SINT-VINCENTIUS - RUE STROOBANTS/STROOBANTSSTRAAT","latitude":50.88058,"longitude":4.401674},{"number":218,"name":"218 - DELACROIX","address":"DELACROIX - RUE LEON DELACROIX 1 a 7 / LEON DELACROIXSTRAAT 1 tot 7","latitude":50.845928,"longitude":4.323812},{"number":83,"name":"083 - SIMONIS","address":"SIMONIS / BD LEOPOLD II (DEVANT 282)/ LEOPOLD II-LAAN (N° 282)","latitude":50.86284,"longitude":4.33126},{"number":146,"name":"146 - LEOPOLD III/LEOPOLD III","address":"LEOPOLD III -  BOULEVARD LEOPOLD III / LEOPOLD III-LAAN","latitude":50.859243,"longitude":4.401022},{"number":28,"name":"028 - CLEMENCEAU / CLEMENCEAU","address":"CLEMENCEAU - CHEE DE MONS/ BERGENSE STEENWEG 159-161-163","latitude":50.842005,"longitude":4.3305},{"number":322,"name":"322 - PARC DU ROI BAUDOUIN / BOUDEWIJNPARK","address":"PARC DU ROI BAUDOUIN / BOUDEWIJNPARK - RUE JEAN BAPTISTE MOYENSSTRAAT 400","latitude":50.889523,"longitude":4.315953},{"number":71,"name":"071 - LEGRAND","address":"LEGRAND - AV LOUISE/LOUIZALAAN 525","latitude":50.815019,"longitude":4.371982},{"number":344,"name":"344 - BETHLEEM","address":"BETHLEEM - PLACE BETHLEEM","latitude":50.830179,"longitude":4.337958},{"number":308,"name":"308 - TIVOLI","address":"TIVOLI - RUE DE MOLENBEEK CROISEMENT RUE DE WAUTIER/ KRUISPUNT MOLENBEEKSTRAAT-DE WAUTIERSTRAAT","latitude":50.872265,"longitude":4.352158},{"number":346,"name":"346 - RECHERCHE","address":"RECHERCHE - ROUTE DE LENNIK N°788","latitude":50.81591,"longitude":4.2737},{"number":184,"name":"184 - PHILIPPE BAUCQ","address":"PHILIPPE BAUCQ - RUE PHILIPPE BAUCQ / PHILIPPE BAUCQSTRAAT 32 - 38","latitude":50.831592,"longitude":4.385786},{"number":111,"name":"111 - ETANGS MELLAERTS VIJVERS","address":"ETANGS MELLAERTS VIJVERS - BOULEVARD DU SOUVERAIN FACE / VORSTLAAN VOOR 275","latitude":50.827831,"longitude":4.431822},{"number":244,"name":"244 - BOIS DE LA CAMBRE","address":"BOIS DE LA CAMBRE - AV WINSTON CHURCHIL 254 / WINSTON CHURCHILLAAN 254","latitude":50.81218,"longitude":4.368321},{"number":6,"name":"006 - GARE CENTRALE/CENTRAAL STATION","address":"GARE CENTRALE/CENTRAAL STATION - BLD DE L'IMPERATRICE/KEIZERINLAAN","latitude":50.845333,"longitude":4.356475},{"number":52,"name":"052 - SAINCTELETTE","address":"SAINCTELETTE - PLACE SAINCTELETTE/SAINCTELETTEPLEIN","latitude":50.859212,"longitude":4.34551},{"number":36,"name":"036 - PLACE ST JEAN / SINT-JANSPLEIN","address":"PLACE ST JEAN/SINT-JANSPLEIN - RUE DU LOMBARD/LOMBARDSTRAAT 42","latitude":50.845124,"longitude":4.351486},{"number":169,"name":"169 - GEORGES EEKHOUD","address":"GEORGES EEKHOUD - AVENUE GEORGES EEKHOUD/GEORGES EEKHOUDLAAN 56","latitude":50.877125,"longitude":4.387515},{"number":275,"name":"275 - VERSAILLES","address":"VERSAILLES - AVENUE DE VERSAILLES / VERSAILLESLAAN 125","latitude":50.896278,"longitude":4.372427},{"number":163,"name":"163 - CHAZAL/CHAZAL","address":"CHAZAL - AVENUE ERNEST CAMBIER (FACE 7)/ ERNEST CAMBIERLAAN (TEGENOVER 7)","latitude":50.859112,"longitude":4.39157},{"number":362,"name":"362 - GARE BERCHEM ST AGATHE/ST AGATA BERCHEM","address":"GARE BERCHEM ST AGATHE/ST AGATA BERCHEM STATION - RUE BOIS DES ÎLES/EILANDENHOUTSTRAAT 1-15","latitude":50.872501,"longitude":4.290218},{"number":174,"name":"174 - MENNEKENS/MENNEKENS","address":"MENNEKENS - AVENUE BRIGADE PIRON (FACE AUX 80 - 82 - 84)/ BRIGADE PIRONLAAN (TEGENOVER 80 - 82 - 84)","latitude":50.853947,"longitude":4.31635},{"number":44,"name":"044 - CHARLEMAGNE / KAREL DE GROTE","address":"CHARLEMAGNE/KAREL DE GROTE - RUE DE LA SCIENCE/WETENSCHAPSSTRAAT 11","latitude":50.841707,"longitude":4.370986},{"number":32,"name":"032 - DANSAERT","address":"DANSAERT - RUE ANTOINE DANSAERT/ANTOINE DANSAERTSTRAAT 60-62-64","latitude":50.850176,"longitude":4.346384},{"number":99,"name":"099 - JUBILE","address":"JUBILE - BOULEVARD DU JUBILE/ JUBELFEESTLAAN 79","latitude":50.864992,"longitude":4.338431},{"number":326,"name":"326 - ADEPS","address":"ADEPS - CHEE DE WAVRE / WAVERSESTEENWEG 2057","latitude":50.809406,"longitude":4.443777},{"number":112,"name":"112 - PAGE/EDELKNAAP","address":"PAGE-EDELKNAAP  -  CHAUSSEE DE WATERLOO/  WATERLOOSE STEENWEG 440 - 442","latitude":50.821567,"longitude":4.356508},{"number":350,"name":"350 - VERHEYLEWEGHEN","address":"VERHEYLEWEGHEN - PLACE VERHEYLEWEGHEN DVT LES N°32-34","latitude":50.848184,"longitude":4.425621},{"number":20,"name":"020 - PALAIS ROYAL / KONINKLIJK PALEIS","address":"PALAIS ROYAL/KONINGSSTRAAT PALEIS - RUE ROYALE (DEVANT N°14)/KONINKLIJKESTRAAT (N°14)","latitude":50.843613,"longitude":4.360628},{"number":329,"name":"329 - ROODEBEEK (FERMÉE-TRAVAUX DE VOIRIE)","address":"FERMÉE-TRAVAUX DE VOIRIE - AV PAUL HYMANS FACE À L'ARRÊT METRO ROODEBEEK","latitude":50.847617,"longitude":4.436084},{"number":191,"name":"191 - ARTAN","address":"ARTAN - RUE CLAYS","latitude":50.853973,"longitude":4.38374},{"number":40,"name":"040 - PORTE DE HAL / HALLEPOORT","address":"PORTE DE HAL/HALLEPOORT - BOULEVARD DU MIDI/ZUIDLAAN 142","latitude":50.833931,"longitude":4.343155},{"number":96,"name":"096 - HOTEL PRESIDENT/PRESIDENT HOTEL","address":"HOTEL PRESIDENT/PRESIDENT HOTEL - BOULEVARD DU ROI ALBERT II/KONING ALBERT-II LAAN","latitude":50.863875,"longitude":4.358708},{"number":8,"name":"008 - ARTS-LOI / KUNST-WET","address":"ARTS-LOI/KUNST-WET -  AVENUE DES ARTS/KUNSTLAAN 24","latitude":50.845683,"longitude":4.368582},{"number":213,"name":"213 - LA ROUE / HET RAD","address":"LA ROUE / HET RAD - CH DE MONS 1100-1106 / BERGENSESTEENWEG 1100-1106","latitude":50.821018,"longitude":4.293865},{"number":340,"name":"340 - TOMBERG","address":"AVENUE PAUL HYMANSLAAN","latitude":50.843617,"longitude":4.425324},{"number":271,"name":"271 - DUBOIS","address":"DUBOIS - BD EMILE MACHTENS/LAAN 102-104","latitude":50.851158,"longitude":4.309591},{"number":255,"name":"255 - SACRE-COEUR DE/HEILIGE HART VAN GANSHOREN","address":"SACRE-COEUR DE GANSHOREN / HEILIGE HART VAN GANSHOREN - AV CHARLESQUINT,9 / KEISERKARELLAAN,9","latitude":50.868011,"longitude":4.313968},{"number":46,"name":"046 - ALBERTINE / ALBERTINA","address":"ALBERTINE/ALBERTINA - BLD DE L'EMPEREUR/KEIZERSLAAN face/tegenover 2","latitude":50.843556,"longitude":4.355006},{"number":196,"name":"196 - PRINCE DE LIEGE / PRINS VAN LUIK","address":"PRINCE DE LIEGE / PRINS VAN LUIK - CHEE DE NINOVE (FACE 629) / NINOOFSESTEENWEG (TEGENOVER 629)","latitude":50.846874,"longitude":4.29817},{"number":84,"name":"084 - STE ANNE/SINT-ANNA","address":"STE ANNE/SINT-ANNA  -  RUE DE L'EGLISE STE ANNE/SINT-ANNAKERKSTRAAT 116","latitude":50.85896,"longitude":4.330107},{"number":57,"name":"057 - MADOU/MADOU","address":"MADOU - RUE SCAILQUIN/SCAILQUINSTRAAT","latitude":50.849761,"longitude":4.369356},{"number":64,"name":"064 - VETERINAIRES / VEEARTSEN","address":"VETERINAIRES/VEEARTSEN - RUE DE FRANCE / FRANKRIJKSTRAAT","latitude":50.832749,"longitude":4.331058},{"number":142,"name":"142 - BIENFAITEURS/WELDOENERS","address":"BIENFAITEURS/WELDOENERS - AVENUE ROGIER / ROGIERLAAN 269/271","latitude":50.857319,"longitude":4.386724},{"number":49,"name":"049 - WILLEBROEK","address":"WILLEBROECK/WILLEBROEK - QUAI DE WILLEBROECK/WILLEBROEKKAAI 22 BIS","latitude":50.8615,"longitude":4.351143},{"number":251,"name":"251 - PAOLA","address":"PAOLA - RUE VICTOR ALLARD FACE 222 / VICTOR ALLARD STRAAT VOOR 222","latitude":50.800377,"longitude":4.326985},{"number":183,"name":"183 - LA CHASSE/JACHT","address":"LA CHASSE/JACHT - AVENUE DES CASERNES/ KAZERNENLAAN 4 - 6","latitude":50.829928,"longitude":4.390357},{"number":43,"name":"043 - JOSEPH II / JOZEF II","address":"JOSEPH II/JOZEF II - RUE JOSEPH II/JOZEF II-STRAAT","latitude":50.845256,"longitude":4.374501},{"number":248,"name":"248 - PRINCE DE LIGNE / PRINCE LIJN","address":"PRINCE DE LIGNE / PRINCE LIJN - CHEE DE WATERLOO FACE 1170 / WATERLOOSESTEENWEG VOOR 1170","latitude":50.795704,"longitude":4.373631},{"number":364,"name":"364 - DOCKS BRUXSEL","address":"DOCKS BRUXSEL - AVENUE JULES VAN PRAETLAAN","latitude":50.880887,"longitude":4.374248},{"number":192,"name":"192 - AUBERGE DE JEUNESSE","address":"AUBERGE DE JEUNESSE - RUE DELAUNOY/STRAAT ,67","latitude":50.851562,"longitude":4.332924},{"number":259,"name":"259 - NOVILLE","address":"NOVILLE - SQ NOVILLE","latitude":50.859608,"longitude":4.33409},{"number":17,"name":"017 - COMTE DE FLANDRE/GRAAF VAN VLAANDEREN","address":"COMTE DE FLANDRE/GRAAF VAN VLAANDEREN - RUE SAINTE-MARIE / SINT-MARIASTRAAT","latitude":50.855358,"longitude":4.339465},{"number":231,"name":"231 - KERSBEEK","address":"KERSBEEK - AV KERSBEEK 107 / KERSBEEKLAAN 107","latitude":50.805801,"longitude":4.3194},{"number":153,"name":"153 - SQUARE ARMAND STEURS","address":"SQUARE ARMAND STEURS/ARMAND STEURSSQUARE - AVENUE PAUL DESCHANEL (FACE N° 267 - 269) / PAUL DESCHANELLAAN (TEGENOVER 267 - 269)","latitude":50.854128,"longitude":4.378002},{"number":16,"name":"016 - LOUISE / LOUIZA","address":"LOUISE/LOUIZA - PLACE LOUISE/LOUIZAPLEIN 53","latitude":50.835968,"longitude":4.355508},{"number":159,"name":"159 - MASUI","address":"MASUI - AVENUE DE LA REINE / KONINGINNELAAN 153","latitude":50.869297,"longitude":4.36257},{"number":282,"name":"282 - CENTENAIRE / EEUWFEEST","address":"CENTENAIRE / EEUWFEEST - BOULEVARD DU CENTENAIRE / EEUWFEESTLAAN","latitude":50.890522,"longitude":4.345112},{"number":120,"name":"120 - BLYCKAERTS","address":"BLYCKAERTS - PLACE RAYMOND BLYCKAERTS/RAYMOND BLYCKAERTSPLEIN","latitude":50.832872,"longitude":4.37483},{"number":242,"name":"242 - MAISON COMMUNALE D'UCCLE/UKKEL GEMEENTEHUIS","address":"MAISON COMMUNALE D'UCCLE/UKKEL GEMEENTEHUIS - PLACE JEAN VANDER ELST / JEAN VANDER ELST PLEIN","latitude":50.803791,"longitude":4.333321},{"number":356,"name":"356 - CENTRE SPORTIF","address":"CENTRE SPORTIF - AVENUE JULES DU JARDIN FACE AU N°45 (ROND POINT DU TIBET)","latitude":50.829715,"longitude":4.455151},{"number":2,"name":"002 - ELOY/ELOY","address":"ELOY - RUE ELOY / ELOYSTRAAT","latitude":50.836151,"longitude":4.326019},{"number":284,"name":"284 - CLAESSENS","address":"CLAESSENS - RUE CLAESSENS FACE 7 / CLAESSENSSTRAAT VOOR 7","latitude":50.873085,"longitude":4.35859},{"number":172,"name":"172 - AEROPOLIS","address":"AEROPOLIS - CHAUSSEE D'HAECHT (FACE 586) / HAACHTSESTEENWEG (TEGENOVER 586)","latitude":50.869764,"longitude":4.388191},{"number":320,"name":"320 - UZ BRUSSEL","address":"UZ BRUSSEL - AVENUE DE L'ARBRE BALLON / DIKKE-BEUKLAAN","latitude":50.887001,"longitude":4.310701},{"number":134,"name":"134 - PLACE DE BASTOGNE/BASTENAKEN","address":"BASTOGNE/BASTENAKEN - PLACE DE BASTOGNE/BASTENAKENPLEIN","latitude":50.862652,"longitude":4.316644},{"number":219,"name":"219 - VAN HELLEMONT","address":"VAN HELLEMONT - RUE DE NEERPEDE 372-374 / NEERPEDESTRAAT 372-374 (FERMEE SUITE ACCIDENT)","latitude":50.829491,"longitude":4.286006},{"number":250,"name":"250 - SAINTE-ELISABETH","address":"SAINTE-ELISABETH - AV DE FRE CROISEMENT CH DE WATERLOO / DEFRELAAN - WATERLOOSESTEENWEG","latitude":50.80534,"longitude":4.372123},{"number":354,"name":"354 - TRIOMPHE / TRIOMF","address":"TRIOMPHE - BD DU TRIOMPHE / TRIOMFLAAN  105 - 107","latitude":50.821557,"longitude":4.402288},{"number":319,"name":"319 - ANCIENNE BARRIERE/OUDE AFSPANNING","address":"ANCIENNE BARRIERE / OUDE AFSPANNINGSPLEIN - PLACE DE L'ANCIENNE BARRIERE FACE 10","latitude":50.885197,"longitude":4.317648},{"number":160,"name":"160 - ELISA","address":"ELISA - PLACE PRINCESSE ELISABETH / PRINSES ELISABETHPLEIN 8 - 19","latitude":50.877501,"longitude":4.380315},{"number":358,"name":"358 - MADOUX","address":"MADOUX - AVENUE DE TERVUREN FACE 403","latitude":50.82708,"longitude":4.444795},{"number":79,"name":"079 - LOI / WET","address":"LOI/WET - RUE D'ARLON/STRAAT 120","latitude":50.84413,"longitude":4.374871},{"number":296,"name":"296 - GARE DE BOITSFORT","address":"GARE DE BOITSFORT / BOSVOORDE STATION - CHEE DE LA HULPE DVT 187 / HULPSESTEENWEG 187","latitude":50.79528,"longitude":4.40832},{"number":300,"name":"300 - GARE DE BOONDAELSTATION","address":"GARE DE BOONDAELSTATION - AV DE LA FORET 23 / VORSTLAAN 23","latitude":50.801434,"longitude":4.392831},{"number":94,"name":"094 - DUCHESSE DE BRABANT/HERTOGIN VAN BRABANT","address":"DUCHESSE DE BRABANT/HERTOGIN VAN BRABANT - RUE DE BIRMINGHAM / BIRMINGHAMSTRAAT","latitude":50.849215,"longitude":4.329184},{"number":266,"name":"266 - GARE BORDET STATION","address":"GARE BORDET / BORDET STATION - CHAUSSEE D'HAECHT FACE 1147 / HAACHTSESTEENWEG VOOR 1147","latitude":50.877552,"longitude":4.409136},{"number":208,"name":"208 - MELBA","address":"MELBA - AV NELLIE MELBA (FACE 1 a 9) / NELLIE MELBALAAN (TEGENOVER 1 tot 9)","latitude":50.832565,"longitude":4.294311},{"number":69,"name":"069 - LESBROUSSART","address":"LESBROUSSART - AVENUE LOUISE/LOUIZALAAN 192","latitude":50.827577,"longitude":4.363797},{"number":305,"name":"305 - PETER BENOIT","address":"PETER BENOIT - PLACE PETER BENOIT PLAATS 2-4","latitude":50.895592,"longitude":4.387965},{"number":98,"name":"098 - CIMETIERE/KERKHOF","address":"CIMETIERE/KERKHOF - BLD METTEWIE/METTEWIELAAN 40 INTERSECTION CHAUSSÉE DE GAND/GENTSESTEENWEEG","latitude":50.85904,"longitude":4.312402},{"number":93,"name":"093 - CLOVIS","address":"CLOVIS - CHAUSSEE DE LOUVAIN - LEUVENSESTEENWEG 260-264","latitude":50.85062,"longitude":4.381152},{"number":263,"name":"263 - MAISON COMMUNALE D'EVERE/EVERE GEMEENTEHUIS","address":"MAISON COMMUNALE D'EVERE/ EVERE GEMEENTEHUIS - SQUARE HOEDEMAEKERS / HOEDEMAEKERSESQUARE 7-8","latitude":50.872002,"longitude":4.403286},{"number":54,"name":"054 - TOUR ET TAXIS/THURN &TAXIS(FERMÉE - TRAVAUX)","address":"FERMÉE - AGRANDISSEMENT STATION - TOUR ET TAXIS/THURN &TAXIS - RUE PICARD/ PICARDSTRAAT 3","latitude":50.863445,"longitude":4.34635},{"number":243,"name":"243 - RONDPOINT CHURCHILL/ROTONDE CHURCHILL","address":"RONDPOINT CHURCHILL/ROTONDE CHURCHILL - AV MESSIDOR FACE 338/MESSIDORLAAN TEGENOVER 338","latitude":50.811752,"longitude":4.353424},{"number":195,"name":"195 - WESTLAND SHOPPING","address":"WESTLAND SHOPPING - BD SYLVAIN DUPUIS 265 / SYLVAIN DUPUIS LAAN 265","latitude":50.8377,"longitude":4.288726},{"number":108,"name":"108 - FLAGEY","address":"FLAGEY - PLACE FLAGEY (FACE 11)/EUGENE FLAGEYPLEIN (TEGENOVER 11)","latitude":50.828012,"longitude":4.371756},{"number":51,"name":"051 - MIDI FONSNY/ZUID FONSNY","address":"MIDI FONSNY/ZUID FONSNY - RUE D'ANGLETERRE / ENGELANDSTRAAT","latitude":50.835699,"longitude":4.338826},{"number":166,"name":"166 - GC ESSEGEM","address":"GC ESSEGEM - RUE AMELIE GOMAND 51- 45","latitude":50.876205,"longitude":4.337137},{"number":216,"name":"216 - ARISTIDE BRIAND","address":"ARISTIDE BRIAND - CH DE MONS 718 a 720 / BERGENSESTEENWEG 718 tot 720","latitude":50.828873,"longitude":4.303918},{"number":157,"name":"157 - HELIOTROPES/HELIOTROPEN","address":"HELIOTROPES/HELIOTROPEN - BOULEVARD LAMBERMONT /  LAMBERMONTLAAN 374","latitude":50.863388,"longitude":4.386222},{"number":38,"name":"038 - JEU DE BALLE / VOSSENPLEIN","address":"JEU DE BALLE/VOSSENPLEIN - RUE BLAES/BLAESSTRAAT 135-141","latitude":50.837912,"longitude":4.347421},{"number":48,"name":"048 - CONGRES","address":"CONGRES - RUE ROYALE/KONINGSSTRAAT 144-146-148","latitude":50.849358,"longitude":4.363589},{"number":301,"name":"301 - MARIE-JOSE","address":"MARIE-JOSE - PLACE MARIE-JOSE FACE 6 / MARIE-JOSE PLAATS VOOR 6","latitude":50.806271,"longitude":4.387673},{"number":180,"name":"180 - JOURDAN","address":"JOURDAN - RUE FROISSART (FACE 3 - 5) / FROISSARTSTRAAT (TEGENOVER 3 - 5)","latitude":50.837726,"longitude":4.381565},{"number":33,"name":"033 - MORT SUBITE","address":"MORT SUBITE - RUE MONTAGNE AUX-HERBES-POTAGERES (FACE N° 7)/WARMOESBERG (TEGENOVER N°7)","latitude":50.848701,"longitude":4.356055},{"number":14,"name":"014 - PORTE DE NAMUR / NAAMSEPOORT","address":"PORTE DE NAMUR/NAAMSEPOORT - BLD DU REGENT /REGENTLAAN 1","latitude":50.839024,"longitude":4.362168},{"number":125,"name":"125 - GEORGES BRUGMANN","address":"GEORGES BRUGMANN - PLACE GEORGES BRUGMANN/GEORGES BRUGMANNPLEIN N° 10 - 11","latitude":50.817392,"longitude":4.354105},{"number":254,"name":"254 - BASILIQUE / BASILIEK","address":"BASILIQUE / BASILIEK - AV JACQUES SERMON / JACUES SERMONLAAN","latitude":50.867393,"longitude":4.320344}]