[{"number":19,"name":"OLOF PALMES PLATS","address":"Olof Palmes Plats","latitude":57.700662,"longitude":11.95364},{"number":71,"name":"OLSKROKSTORGET","address":"OLSKROKSTORGET","latitude":57.714739,"longitude":11.99652},{"number":69,"name":"STENPIREN","address":"Stenpiren","latitude":57.705703,"longitude":11.957183},{"number":56,"name":"CHALMERSPLATSEN","address":"Chalmersplatsen","latitude":57.68979,"longitude":11.97305},{"number":70,"name":"GULLBERGSVASS/GASVERKET","address":"GULLBERGSVASS/GASVERKET","latitude":57.7192479,"longitude":11.9838407},{"number":55,"name":"CHALMERS TVÄRGATA","address":"Chalmers Tvärgata","latitude":57.68953,"longitude":11.97974},{"number":17,"name":"KUNGSTORGET","address":"Kungstorget","latitude":57.702542,"longitude":11.968875},{"number":53,"name":"LÄRAREGATAN/MOLINSGATAN","address":"Läraregatan/Molinsgatan","latitude":57.69418,"longitude":11.97451},{"number":3,"name":"POSTGATAN","address":"Postgatan","latitude":57.707476,"longitude":11.963926},{"number":24,"name":"GÅRDATORGET","address":"Gårdatorget","latitude":57.704675,"longitude":11.992441},{"number":10,"name":"VALAND","address":"Valand","latitude":57.700324,"longitude":11.973429},{"number":57,"name":"KRUTHUSGATAN","address":"Kruthusgatan","latitude":57.71185,"longitude":11.9806},{"number":67,"name":"ÖSTRA HAMNGATAN","address":"Östra hamngatan","latitude":57.704639,"longitude":11.969008},{"number":16,"name":"BOHUSGATAN","address":"Bohusgatan","latitude":57.70452,"longitude":11.984298},{"number":14,"name":"KRISTINELUNDSGATAN","address":"Kristinelundsgatan","latitude":57.699939,"longitude":11.976176},{"number":32,"name":"BRUNNSGATAN","address":"Brunnsgatan","latitude":57.693517,"longitude":11.958559},{"number":50,"name":"KUNGSGATAN/TELEKASERN","address":"Kungsgatan/Telekasern","latitude":57.70337,"longitude":11.96012},{"number":510,"name":"DOMKYRKAN","address":"Domkyrkan","latitude":57.70434,"longitude":11.96388},{"number":58,"name":"FOLKUNGAGATAN","address":"Folkungagatan","latitude":57.70884,"longitude":11.98472},{"number":27,"name":"LISEBERG STATION","address":"Liseberg Station","latitude":57.697923,"longitude":11.995107},{"number":25,"name":"SCANDINAVIUM","address":"Scandinavium","latitude":57.700094,"longitude":11.987908},{"number":41,"name":"SLOTTSKOGEN/PLIKTA","address":"Slottskogen/Plikta","latitude":57.689983,"longitude":11.947047},{"number":13,"name":"GUSTAF ADOLFS TORG","address":"Gustaf Adolfs Torg","latitude":57.707233,"longitude":11.967502},{"number":21,"name":"BASTIONSPLATSEN","address":"Bastionsplatsen","latitude":57.704263,"longitude":11.972077},{"number":91,"name":"LINDHOLMSALLÉN/REGNBÅGSGATAN","address":"Lindholmsallén/regnbågsga","latitude":57.710749,"longitude":11.943626},{"number":49,"name":"KAPONJÄRSGATAN","address":"Kaponjärsgatan","latitude":57.698949,"longitude":11.956468},{"number":66,"name":"ÅVÄGEN NORRA","address":"Åvägen Norra","latitude":57.704535,"longitude":11.990748},{"number":23,"name":"ULLEVIGATAN","address":"Ullevigatan","latitude":57.707048,"longitude":11.983638},{"number":65,"name":"GULLBERGSVASS","address":"Gullbergsvass","latitude":57.716378,"longitude":11.97472},{"number":6,"name":"SLUSSPLATSEN","address":"Slussplatsen","latitude":57.707316,"longitude":11.973448},{"number":63,"name":"LÄPPSTIFTET","address":"Läppstiftet","latitude":57.713496,"longitude":11.968013},{"number":29,"name":"KORSVÄGEN","address":"Korsvägen 2","latitude":57.696555,"longitude":11.987833},{"number":48,"name":"CARLANDERSPLATSEN","address":"Carlanderplatsen","latitude":57.69312,"longitude":11.98661},{"number":43,"name":"PACKHUSPLATSEN","address":"Packhusplatsen","latitude":57.706767,"longitude":11.959101},{"number":54,"name":"EKLANDA/UTLANDAGATAN","address":"Eklanda/Utlandagatan","latitude":57.69032,"longitude":11.98854},{"number":40,"name":"LINNÉPLATSEN","address":"Linnéplatsen","latitude":57.690278,"longitude":11.95165},{"number":90,"name":"LINDHOLMSPLATSEN","address":"Lindholmsplatsen","latitude":57.707608,"longitude":11.938275},{"number":8,"name":"ESPERANTOPLATSEN","address":"008_ESPERANTOPLATSEN","latitude":57.702793,"longitude":11.955461},{"number":46,"name":"KAPELLPLATSEN","address":"Kapellplatsen","latitude":57.69358,"longitude":11.97199},{"number":22,"name":"DÄMMEPLATSEN","address":"Dämmeplatsen","latitude":57.70701,"longitude":11.99039},{"number":42,"name":"DROTTNINGTORGET","address":"Drottningtorget","latitude":57.708074,"longitude":11.972737},{"number":61,"name":"MASTHUGGSTORGET","address":"Masthuggstorget","latitude":57.699415,"longitude":11.941861},{"number":47,"name":"BERZELIIGATAN","address":"Berzeliigatan","latitude":57.69794,"longitude":11.98096},{"number":33,"name":"FÖRENINGSGATAN","address":"Föreningsgatan","latitude":57.694554,"longitude":11.961987},{"number":51,"name":"HAGABION","address":"Hagabion","latitude":57.696837,"longitude":11.951009},{"number":62,"name":"ROSENLUND/FÄRJELÄGET","address":"Rosenlund/Färgeläget","latitude":57.702301,"longitude":11.952395},{"number":12,"name":"GRÖNSAKSTORGET","address":"Grönsakstorget","latitude":57.702459,"longitude":11.965179},{"number":45,"name":"ALSTRÖMER/FRIGGAGATAN","address":"Alströmer/Friggagatan","latitude":57.71119,"longitude":11.98798},{"number":68,"name":"SVINGELN","address":"Svingeln","latitude":57.712435,"longitude":11.990553},{"number":59,"name":"FÖRSTALÅNG/VÄRMLANDSGATAN","address":"Förstalång/Värmlandsgatan","latitude":57.699968,"longitude":11.946097},{"number":30,"name":"BERGAKUNGEN","address":"Bergakungen","latitude":57.702135,"longitude":11.985035},{"number":18,"name":"ROSENLUNDSPLATSEN","address":"Rosenlundsplatsen","latitude":57.700685,"longitude":11.960571},{"number":92,"name":"VOLVO B-PORT LUNDBY","address":"Volvo B-Port Lundby","latitude":57.716886,"longitude":11.921432},{"number":15,"name":"HEDEN/STENSTUREGATAN","address":"Heden/Stensturegatan","latitude":57.702955,"longitude":11.98021},{"number":11,"name":"STORAN","address":"Storan","latitude":57.702482,"longitude":11.971552},{"number":31,"name":"ÅVÄGEN","address":"Åvägen","latitude":57.701249,"longitude":11.992191},{"number":39,"name":"FRIGÅNGSGATAN","address":"Frigångsgatan","latitude":57.697821,"longitude":11.952905},{"number":60,"name":"TREDJELÅNG/VÄRMLANDSGATAN","address":"Tredjelång/Värmlandsgatan","latitude":57.698261,"longitude":11.946208},{"number":34,"name":"KASTELLGATAN","address":"Kastellgatan","latitude":57.693029,"longitude":11.955692},{"number":26,"name":"HEDEN SYD","address":"Heden Syd","latitude":57.699941,"longitude":11.979867},{"number":52,"name":"GIBRALTARG/EKLANDAG","address":"Gibraltargatan/Eklandagatan","latitude":57.68542,"longitude":11.98322},{"number":28,"name":"KORSVÄGEN /SÖDRA VÄGEN","address":"Korsvägen 1/Södra Vägen","latitude":57.696916,"longitude":11.985703},{"number":1,"name":"LILLA BOMMEN","address":"Lilla Bommen","latitude":57.711547,"longitude":11.966574},{"number":5,"name":"VASAGATAN/HEDEN","address":"Vasagatan/Heden","latitude":57.701419,"longitude":11.9766},{"number":37,"name":"MOLINSGATAN","address":"Molinsgatan","latitude":57.69691,"longitude":11.97234},{"number":7,"name":"POSTHUSET/ÅKAREPLATSEN","address":"Posthuset/Åkareplatsen","latitude":57.708554,"longitude":11.97559},{"number":35,"name":"SKANSTORGET","address":"Skanstorget","latitude":57.695909,"longitude":11.958548},{"number":20,"name":"NILS-ERICSSON TERMINALEN","address":"Nils-Ericsson Terminalen","latitude":57.709752,"longitude":11.970787},{"number":38,"name":"VASAGATAN/SCHILLERSKA","address":"Vasagatan/Schillerska","latitude":57.698265,"longitude":11.967115},{"number":36,"name":"HAGAPARKEN","address":"Hagaparken","latitude":57.697984,"longitude":11.962405},{"number":44,"name":"ENGELBREKTSGATAN","address":"Engelbrektsgatan","latitude":57.69841,"longitude":11.97694}]