[{"number":53,"name":"LUDWIG VAN BEETHOVEN","address":"LUDWIG VAN BEETHOVEN - RUE LUDWIG VAN BEETHOVEN ( DEVANT N° 45 )","latitude":49.59,"longitude":6.1172},{"number":24,"name":"BRICHERHAFF","address":"BRICHERHAFF - AVENUE JF KENNEDY / RUE ALPHONSE WEICKER","latitude":49.631952,"longitude":6.17048},{"number":6,"name":"AAL BRECK","address":"AAL BRECK - VIADUC / BOULEVARD DE LA PETRUSSE","latitude":49.60481,"longitude":6.133404},{"number":47,"name":"LEOPOLD GOEBEL","address":"LEOPOLD GOEBEL - ALLEE LEOPOLD GOEBEL ( DEVANT N° 109 )","latitude":49.6122,"longitude":6.1072},{"number":33,"name":"K. ADENAUER","address":"K . ADENAUER - BOULEVARD KONRAD ADENAUER ( DEVANT BEI )","latitude":49.6201,"longitude":6.1388},{"number":17,"name":"ROBERT SCHUMAN","address":"ROBERT SCHUMAN - SQUARE SCHUMAN","latitude":49.616669,"longitude":6.126069},{"number":11,"name":"WINSTON CHURCHILL","address":"WINSTON CHURCHILL - PLACE CHURCHILL","latitude":49.6113,"longitude":6.119},{"number":23,"name":"REIMERWEE","address":"REIMERWEE - BOULEVARD K ADENAUER / RUE K KALERGI","latitude":49.629448,"longitude":6.157348},{"number":75,"name":"BEINCHEN","address":"BEINCHEN","latitude":49.61561,"longitude":6.13097},{"number":45,"name":"AUBEPINES","address":"AUBEPINES - VAL SAINTE CROIX / RUE DES AUBEPINES","latitude":49.6126,"longitude":6.0977},{"number":68,"name":"UM SCHLASS","address":"UM SCHLASS - CEINTURE UM SCHLASS","latitude":49.57337,"longitude":6.14397},{"number":27,"name":"MERCIER","address":"MERCIER - RUE DU COMMERCE / PARKING","latitude":49.5986,"longitude":6.132119},{"number":62,"name":"LEYDENBACH","address":"LEYDENBACH","latitude":49.62915,"longitude":6.173101},{"number":1,"name":"LEON XIII","address":"LEON XIII-RUE DE BONNEVOIE ( DEVANT N° 103 )","latitude":49.598211,"longitude":6.137526},{"number":14,"name":"KNUEDLER","address":"KNUEDLER - PLACE GUILLAUME","latitude":49.610687,"longitude":6.131621},{"number":38,"name":"HELLEG GEESCHT","address":"HELLEG GEESCHT - PLATEAU SAINT ESPRIT","latitude":49.607624,"longitude":6.134765},{"number":19,"name":"PHILHARMONIE","address":"PHILHARMONIE - AVENUE JF KENNEDY / PLACE DE L'EUROPE","latitude":49.619361,"longitude":6.1443905},{"number":50,"name":"MUGUETS","address":"MUGUETS - RUE DES MUGUETS ( DEVANT N° 57 )","latitude":49.6216,"longitude":6.1565},{"number":30,"name":"MERKELS PLAZ","address":"MERKELS PLAZ - RUE JEAN BAPTISTE MERKELS / PLACE MERKELS","latitude":49.599846,"longitude":6.122565},{"number":72,"name":"AN DER BOURMICHT","address":"AN DER BOURMICHT - ZONE INDUSTRIELLE BOURMICHT / RES DES MEROVINGIENS","latitude":49.61086,"longitude":6.08097},{"number":16,"name":"AMELIE","address":"AMELIE - BOULEVARD ROYAL / AVENUE AMELIE","latitude":49.613339,"longitude":6.125794},{"number":22,"name":"CAMPUS KIRCHBIERG","address":"CAMPUS KIRCHBIERG - BOULEVARD JF KENNEDY / RUE K KALERGI","latitude":49.6264,"longitude":6.1613},{"number":73,"name":"JEANNE D'ARC","address":"JEANNE D'ARC - PLACE JEANNE D'ARC","latitude":49.59691,"longitude":6.147957},{"number":13,"name":"GELLE FRA","address":"GELLE FRA - BOULEVARD ROOSEVELT / PLACE DE LA CONSTITUTION","latitude":49.60947,"longitude":6.12963},{"number":56,"name":"FISCHERHAFF","address":"FISCHERHAFF- RUE DE CESSANGE 177","latitude":49.5911,"longitude":6.1057},{"number":25,"name":"KIEM","address":"KIEM - CIRCUIT DE LA FOIRE / RUE ALPHONSE WEICKER","latitude":49.634283,"longitude":6.166633},{"number":48,"name":"BGL BNP PARIBAS","address":"BGL BNP PARIBAS  - RUE EDOUARD STEICHEN ( FACE N° 10 )","latitude":49.6318,"longitude":6.1741},{"number":65,"name":"BEI DER SCHOUL","address":"BEI DER SCHOUL - RUE FERDINAND KUHN","latitude":49.58421,"longitude":6.14202},{"number":15,"name":"THEATER PLAZ","address":"THEATER PLAZ - PLACE DU THEATRE ( FACE N°1 )","latitude":49.612782,"longitude":6.131208},{"number":7,"name":"ROUSEGAERTCHEN","address":"ROUSEGAERTCHEN - PLACE DES MARTYRS","latitude":49.605818,"longitude":6.129062},{"number":52,"name":"BEI DER AUER","address":"BEI DER AUER - RUE DE GASPERICH ( DEVANT N° 20 )","latitude":49.591404,"longitude":6.125333},{"number":35,"name":"GASTON DIDERICH","address":"GASTON DIDERICH - AVENUE GASTON DIDERICH","latitude":49.6098,"longitude":6.1062},{"number":57,"name":"BOUILLON","address":"BOUILLON - RUE DE BOUILLON / PARKING","latitude":49.60001,"longitude":6.10826},{"number":4,"name":"ROCADE","address":"ROCADE-RUE DU LABORATOIRE ( DEVANT VDL )","latitude":49.602989,"longitude":6.136083},{"number":55,"name":"SCHAARFEN ECK","address":"SCHAARFEN ECK- RUE EMILE BIAN","latitude":49.58043,"longitude":6.11465},{"number":29,"name":"MONTEREY","address":"MONTEREY - AVENUE DE MONTEREY ( FACE N° 49 )","latitude":49.609583,"longitude":6.119523},{"number":49,"name":"MARGUERITES","address":"MARGUERITES - RUE DES MARGUERITES ( FACE N° 105 A )","latitude":49.623837,"longitude":6.160642},{"number":5,"name":"PARAISER PLAZ","address":"PARAISER PLAZ - AVENUE DE LA LIBERTE / PLACE DE PARIS","latitude":49.603565,"longitude":6.13081},{"number":44,"name":"ARELER STROOSS","address":"ARELER STROOSS - RUE DES AUBEPINES ( FACE N° 187 )","latitude":49.6162,"longitude":6.0984},{"number":31,"name":"PLACE DE FRANCE","address":"PLACE DE FRANCE - PLACE DE FRANCE","latitude":49.60625,"longitude":6.105961},{"number":36,"name":"J.B. GELLE","address":"J.B. GELLE - RUE JEAN- BAPTISTE GELLE ( DEVANT N° 6 )","latitude":49.596787,"longitude":6.1400375},{"number":10,"name":"MÄRELER PARC","address":"MÄRELER PARC - RUE DU 10 SEPTEMBRE ( DEVANT N° 108 )","latitude":49.608146,"longitude":6.111627},{"number":39,"name":"KRAIZGRENNCHEN","address":"KRAIZGRENNCHEN - SQUARE DE NEW- YORK","latitude":49.6133,"longitude":6.117},{"number":34,"name":"KOLLEISCH","address":"KOLLEISCH - RUE DE BRAGANCE","latitude":49.604577,"longitude":6.111927},{"number":63,"name":"LABOURS","address":"LABOURS - RUE DES LABOURS / BLD J.F.KENNEDY","latitude":49.6301,"longitude":6.16843},{"number":76,"name":"SAUVAGE","address":"SAUVAGE - RUE JEAN-PIERRE SAUVAGE","latitude":49.62582,"longitude":6.13935},{"number":41,"name":"PLACE LAURENT","address":"PLACE LAURENT - PLACE AUGUSTE LAURENT","latitude":49.6202,"longitude":6.1227},{"number":28,"name":"CHARLY'S GARE","address":"CHARLY'S GARE - BOULEVARD PRINCE HENRI","latitude":49.61274,"longitude":6.124114},{"number":2,"name":"GARE CENTRALE","address":"GARE CENTRALE-PLACE DE LA GARE (Quai n°1)","latitude":49.600666,"longitude":6.133781},{"number":51,"name":"SAUERWISS","address":"SAUERWISS - RUE ABBE FRANCOIS LASCOMBE ( DEVANT N° 54 )","latitude":49.594088,"longitude":6.125123},{"number":20,"name":"COQUE","address":"COQUE - AVENUE JF KENNEDY / RUE ERASME","latitude":49.62133,"longitude":6.151987},{"number":58,"name":"SCHLUECHTHAUS","address":"SCHLUECHTHAUS - RUE DE L'ABATTOIR","latitude":49.60136,"longitude":6.11581},{"number":71,"name":"LES THERMES","address":"LES THERMES - RUE DU CIMETIERE","latitude":49.61489,"longitude":6.07275},{"number":67,"name":"PETERNELCHEN","address":"PETERNELCHEN - RUE DES BRUYERES","latitude":49.57756,"longitude":6.13727},{"number":79,"name":"GARE CENTRALE 2","address":"Gare Centrale 2 - Place de Gare n°3-5","latitude":49.601051,"longitude":6.133744},{"number":26,"name":"HOLLERECHER PLAZ","address":"HOLLERECHER PLAZ - PLACE SAINT PIERRE ET ¨PAUL","latitude":49.598613,"longitude":6.117957},{"number":54,"name":"CLOCHE D' OR","address":"CLOCHE D'OR - RUE JEAN PIRET ( DEVANT N° 3 )","latitude":49.583377,"longitude":6.115817},{"number":70,"name":"GEMENG STROOSSEN","address":"GEMENG STROOSSEN - RUE DES ROMAINS","latitude":49.61909,"longitude":6.07227},{"number":9,"name":"CONVICT","address":"CONVICT - PLACE DU FOYER","latitude":49.6059,"longitude":6.1199},{"number":43,"name":"LYCEE TECHNIQUE  DE BONNEVOIE","address":"LYCEE TECHNIQUE DE BONNEVOIE - RUE DU CIMETIERE ( DEVANT N° 110 )","latitude":49.5911,"longitude":6.1416},{"number":59,"name":"ST HUBERT","address":"ST HUBERT - RUE DE MERL 147 / RUE ST HUBERT","latitude":49.60289,"longitude":6.09322},{"number":69,"name":"UM REIMERWEE","address":"UM REIMERWEE - RUE DU KIEM","latitude":49.61769,"longitude":6.08276},{"number":74,"name":"SAINTE CUNEGONDE","address":"SAINTE CUNEGONDE - PLACE STE CUNEGONDE","latitude":49.6146,"longitude":6.14283},{"number":18,"name":"CAMPUS LAMPERTSBIERG","address":"CAMPUS LAMPERTSBIERG - RUE DE LA FAIENCERIE ( DEVANT N° 151 )","latitude":49.6219,"longitude":6.1118},{"number":3,"name":"STROOSSBUERGER PLAZ","address":"STROOSSBUERGER PLAZ - PLACE DE STRASBOURG ( FACE N° 41 )","latitude":49.600541,"longitude":6.128376},{"number":60,"name":"BOCH","address":"BOCH - RUE J-F BOCH","latitude":49.61925,"longitude":6.10842},{"number":66,"name":"BEIM TENNIS","address":"BEIM TENNIS - RUE DES SCILLAS","latitude":49.58237,"longitude":6.13624},{"number":40,"name":"GLACIS KAPELL","address":"GLACIS KAPELL - BOULEVARD DE LA FOIRE ( DEVANT N° 21 )","latitude":49.6147,"longitude":6.1211},{"number":32,"name":"PISCINE OLYMPIQUE","address":"PISCINE OLYMPIQUE - RUE LEON HENGEN","latitude":49.623901,"longitude":6.150013},{"number":21,"name":"JEAN MONNET","address":"JEAN MONNET - BOULEVARD KONRAD ADENAUER / RUE ERASME","latitude":49.625714,"longitude":6.148347},{"number":42,"name":"SQUARE ANDRE","address":"SQUARE ANDRE - SQUARE EDOUARD ANDRE ( DEVANT N° 1 )","latitude":49.6238,"longitude":6.1188},{"number":64,"name":"GRENIER","address":"GRENIER - RUE EDOUARD GRENIER","latitude":49.59459,"longitude":6.14277},{"number":46,"name":"LONKECHER STROOSS","address":"LONKECHER STROOSS - ROUTE DE LONGWY ( DEVANT N° 241 )","latitude":49.6055,"longitude":6.1},{"number":61,"name":"FRIEDEN","address":"FRIEDEN - BVD PIERRE FRIEDEN","latitude":49.637327,"longitude":6.164573}]