[{"number":22,"name":"022 - GROGNON","address":"022 - GROGNON - AV F.GOLENVAUX / GROGNON","latitude":50.462537,"longitude":4.869596},{"number":7,"name":"007 - ANGE","address":"007 - ANGE - PLACE DE L ANGE FACE 95","latitude":50.46424,"longitude":4.8652},{"number":1,"name":"001 - OCTAVE HENRY","address":"001 - OCTAVE HENRY - RUE DE GEMBLOUX / HALL OMNISPORT","latitude":50.47536,"longitude":4.84661},{"number":30,"name":"030 - PLACE LOUISE GODIN","address":"030 - PLACE LOUISE GODIN- LOUISE GODIN","latitude":50.460596,"longitude":4.842836},{"number":28,"name":"028 - EXPO","address":"028 - EXPO - AV SGT VRITHOFF FACE PALAIS DES EXPO","latitude":50.46675,"longitude":4.84834},{"number":24,"name":"024 - SAINT-AUBAIN","address":"024 - SAINT-AUBAIN - RUE DU COLLEGE / PLACE SAINT-AUBIN","latitude":50.46387,"longitude":4.861142},{"number":12,"name":"012 - PLACE SAINT-NICOLAS","address":"012 - PLACE SAINT-NICOLAS - AVENUE ALBERT 1ER / PARKING P + R","latitude":50.46687,"longitude":4.88484},{"number":17,"name":"017 - GARE DE JAMBES","address":"017 - GARE DE JAMBES - RUE DE LA GARE FLEURIE","latitude":50.455072,"longitude":4.8755827},{"number":15,"name":"015 - PONT DE JAMBES","address":"015 - PONT DE JAMBES - PONT DE JAMBES","latitude":50.457858,"longitude":4.86697},{"number":31,"name":"031-PLACE DE BERCK-SUR-MER","address":"031 - PLACE DE BERCK-SUR-MER / PLACE DE BERCK-SUR-MER","latitude":50.464517,"longitude":4.839852},{"number":11,"name":"011 - CITE ADMINISTRATIVE","address":"011 - CITE ADMINISTRATIVE - BD CAUCHY","latitude":50.46786,"longitude":4.87352},{"number":13,"name":"013 - PONT DES ARDENNES","address":"013 - PONT DES ARDENNES - PONT DES ARDENNES","latitude":50.46155,"longitude":4.87609},{"number":25,"name":"025 - AUBERGE DE JEUNESSE","address":"025 - AUBERGE DE JEUNESSE - AVENUE FELICIEN ROPS","latitude":50.448224,"longitude":4.859506},{"number":29,"name":"029 - WIERTZ","address":"029 - WIERTZ - PLACE WIERTZ FACE 8","latitude":50.464476,"longitude":4.849289},{"number":26,"name":"026 - ARSENAL","address":"026 - ARSENAL - BOULEVARD FRERE ORBAN","latitude":50.464457,"longitude":4.85644},{"number":2,"name":"002 - CROIX DE FEUX","address":"002 - CROIX DE FEUX - AV DES CROIX DE FEUX / RUE MUZET FACE NÂ°7","latitude":50.470692,"longitude":4.852803},{"number":6,"name":"006 - HOTEL DE VILLE","address":"006 - HOTEL DE VILLE - RUE DE FER DVT 101","latitude":50.46697,"longitude":4.86546},{"number":23,"name":"023 - MAURICE SERVAIS","address":"023 - MAURICE SERVAIS - PLACE MAURICE SERVAIS DVT 92","latitude":50.46204,"longitude":4.86499},{"number":10,"name":"010 - ARTHUR MASSON","address":"010 - ARTHUR MASSON - SQUARE ARTHUR MASSON N 5","latitude":50.46364,"longitude":4.87353},{"number":18,"name":"018 - CPAS","address":"018 - CPAS - RUE DE DAVE","latitude":50.451892,"longitude":4.868837},{"number":34,"name":"034 - ROGIER","address":"034 - ROGIER - RUE ROGIER / RUE NAMECHE","latitude":50.46735,"longitude":4.86872},{"number":27,"name":"027 - OMALIUS","address":"027 - OMALIUS - REMPART DE LA VIERGE / PLACE D'OMALIUS","latitude":50.4674,"longitude":4.8581},{"number":21,"name":"021 - CASINO","address":"021 - CASINO - AVENUE BARON DE MOREAU / CASINO","latitude":50.45617,"longitude":4.86269},{"number":3,"name":"003 - GARE DU NORD","address":"003 - GARE DU NORD - BD DU NORD FACE 5","latitude":50.47001,"longitude":4.86199},{"number":16,"name":"016 - PLACE DE WALLONIE","address":"016 - PLACE DE WALLONIE - PLACE DE LA WALLONIE","latitude":50.45602,"longitude":4.87266},{"number":32,"name":"032- ECOLE DES CADETS","address":"032- ECOLE DES CADETS - PLACE DE L'ECOLE DES CADETS","latitude":50.46603,"longitude":4.87735},{"number":4,"name":"004 - GARE DE NAMUR","address":"004 - GARE DE NAMUR - PLACE DE LA STATION / GARE","latitude":50.4683,"longitude":4.86266}]