[{"number":5,"name":"05- HOTEL DE VILLE","address":"RUE DE L HOPITAL","latitude":49.44250558644192,"longitude":1.098266338219107},{"number":14,"name":"14- BALZAC - BOULEVARD DE L' EUROPE","address":"BOULEVARD DE L' EUROPE","latitude":49.42582345143276,"longitude":1.087912810909562},{"number":23,"name":"23 - HANGAR 106","address":"Quai Jean de Béthencourt devant le Hangar 106 76100 ROUEN","latitude":49.440312,"longitude":1.075491},{"number":10,"name":"10- PLACE CARNOT","address":"COURS CLEMENCEAU","latitude":49.4336973759198,"longitude":1.09090294278958},{"number":20,"name":"20 - AUBERGE DE JEUNESSE","address":"ROUTE DE DARNETAL","latitude":49.441452231089485,"longitude":1.120087272683398},{"number":17,"name":"17- SAINT CLEMENT","address":"RUE LECUYER ANGLE RUE LETHUILLIER PINEL","latitude":49.42576540125409,"longitude":1.076303569768087},{"number":19,"name":"19 - JARDIN DES PLANTES","address":"Avenue des Martyrs de la Résistance angle rue de la mare au parc","latitude":49.42174920022087,"longitude":1.079707617664568},{"number":4,"name":"04- MUSEE DES BEAUX ARTS","address":"DEVANT N° 39 ALLEE EUGENE DELACROIX","latitude":49.44430797679112,"longitude":1.093579586130271},{"number":22,"name":"22 - CATHEDRALE","address":"Rue des Carmes angle rue du Gros Horloge","latitude":49.440904,"longitude":1.09396},{"number":15,"name":"15-GARE","address":"RUE JEANNE D'ARC ANGLE RUE DE LA ROCHEFOUCAULD","latitude":49.448285193967465,"longitude":1.09419956401142},{"number":8,"name":"08- SAINT MARC","address":"RUE ARMAND CARREL","latitude":49.43811211136788,"longitude":1.100852281910646},{"number":2,"name":"02- PASTEUR - FAC DE DROIT","address":"AVENUE PASTEUR","latitude":49.4442849736749,"longitude":1.07838302560908},{"number":12,"name":"12- PLACE DES COTONNIERS","address":"PLACE DES COTONNIERS","latitude":49.43087671678897,"longitude":1.081412105910482},{"number":9,"name":"09 - REPUBLIQUE - QUAI CORNEILLE","address":"RUE DE LA REPUBLIQUE","latitude":49.437489866065405,"longitude":1.096252291204278},{"number":1,"name":"01 - THEATRE DES ARTS","address":"DEVANT N°7 BIS RUE JEANNE D'ARC","latitude":49.439524149091774,"longitude":1.088804949870617},{"number":6,"name":"06- CHU - RUE DE GERMONT","address":"DEVANT N° 6 RUE EDOUARD ADAM","latitude":49.441201188322225,"longitude":1.105985502540096},{"number":16,"name":"16-ILE LACROIX","address":"AVENUE JACQUES CHASTELLAIN - PARKING DE LA PATINOIRE","latitude":49.431521256315975,"longitude":1.102925918082832},{"number":13,"name":"13- SAINT SEVER","address":"PLACE SAINT SEVER","latitude":49.430880514851474,"longitude":1.086095305349564},{"number":3,"name":"03- VIEUX MARCHE","address":"PLACE DU VIEUX MARCHE","latitude":49.44340061638054,"longitude":1.089234065324399},{"number":11,"name":"11- CLEMENCEAU JOFFRE","address":"COURS CLEMENCEAU","latitude":49.43464613956876,"longitude":1.087959490140167},{"number":24,"name":"24 - HANGAR 108","address":"Allée Jean de Béthencourt devant LE HANGAR 108 76100 ROUEN","latitude":49.441286,"longitude":1.07176},{"number":7,"name":"07- CHU - BOULEVARD GAMBETTA","address":"RUE D' AMIENS","latitude":49.43885379551624,"longitude":1.107488426850231},{"number":21,"name":"21 - SIMONE DE BEAUVOIR","address":"RUE DE LESSARD ANGLE AVENUE DE GRAMMOND","latitude":49.427214017510224,"longitude":1.096418417222262},{"number":18,"name":"18 - DOCKS","address":"bd ferdinands de lesseps angle rue amedee dormoy","latitude":49.44541856175536,"longitude":1.063998154832871}]