[{"number":8,"name":"008_PLAZA DE ITALIA","address":"Plaza de Italia (Aprox. C/ de Joaquín Costa)","latitude":43.4718048257527,"longitude":-3.78134613485541},{"number":3,"name":"003_PARQUE LAS LLAMAS","address":"Parque las Llamas (Aprox. Palacio de Deportes)","latitude":43.47573226037,"longitude":-3.79806387098462},{"number":14,"name":"014_ATILANO RODRIGUEZ","address":"Atilano Rodriguez (aprox Paseo Pereda y San Fernando)","latitude":43.4583838909468,"longitude":-3.8104683913313},{"number":12,"name":"012_CALLE ALTA","address":"Calle Alta (Aprox. Mercado de México)","latitude":43.4579662522228,"longitude":-3.82480124234961},{"number":9,"name":"009_AVENIDA DE LA MAGDALENA","address":"Avenida de la Magdalena (Aprox. Avda de la Reina Victoria)","latitude":43.4691494140035,"longitude":-3.77327597557961},{"number":7,"name":"007_FACULTAD DE DERECHO","address":"Facultad de Derecho (Aprox. Facultad de Ciencias)","latitude":43.4701661089386,"longitude":-3.80649947753026},{"number":5,"name":"005_GLORIETA DE LOS DELFINES","address":"Glorieta de los Delfines (Aprox. Avda de los Castros)","latitude":43.4719661074837,"longitude":-3.79285449619735},{"number":2,"name":"002_PLAZA DE LAS BRISAS","address":"Plaza de las Brisas (Aprox. Jardines de Piquio)","latitude":43.4744126704703,"longitude":-3.78578134528458},{"number":10,"name":"010_PLAZA DE SAN MARTIN","address":"Plaza de San Martin (Aprox. Avda de la Reina Victoria y Castelar)","latitude":43.4635521249485,"longitude":-3.78800547922826},{"number":13,"name":"013_CALLE DE SAN FERNANDO","address":"Calle de San Fernando (Aprox. Paseo del Alameda)","latitude":43.4607255432349,"longitude":-3.81797824491875},{"number":4,"name":"004_CORMORÁN","address":"Cormoran (Aprox. C/ de Manuel García Lago)","latitude":43.4784718110308,"longitude":-3.78865314567001},{"number":15,"name":"015_AV.DE LOS CASTROS 141","address":"Cerca de borna 7","latitude":43.465323,"longitude":-3.825767},{"number":1,"name":"001_JARDINES DE PEREDA","address":"Jardines de Pereda (Aprox. Correos y Castelar)","latitude":43.461719,"longitude":-3.8021},{"number":6,"name":"006_FACULDAD DE CIENCIAS","address":"Facultad de las Ciencias (Aprox. Glorieta de los Delfines)","latitude":43.4711061117108,"longitude":-3.80058645890079},{"number":16,"name":"016_SEVERO OCHOA","address":"Severo Ochoa","latitude":43.4528130549523,"longitude":-3.87139068298249},{"number":17,"name":"017_RUCANDIAL","address":"Rucandial","latitude":43.4548260614091,"longitude":-3.86690066866145},{"number":11,"name":"011_PUERTO CHICO","address":"Puerto Chico (Aprox.Paseo Pereda y San Martín)","latitude":43.4621430815773,"longitude":-3.79724144946775}]