[{"number":8,"name":"08 - ROND POINT HOTEL DE VILLE","address":"Avenue de la France Libre","latitude":48.7773524472175,"longitude":2.45537843175518},{"number":6,"name":"06 - AVENUE DE LA BRECHE","address":"AVENUE DE LA BRECHE","latitude":48.78350102672993,"longitude":2.454576358402657},{"number":1,"name":"01 - LATTRE DE TASSIGNY","address":"AVENUE DU MARECHAL DE LATTRE DE TASSIGNY","latitude":48.7988350967829,"longitude":2.45387633773323},{"number":5,"name":"05 - GENERAL LECLERC / BARRAGE","address":"144 RUE DU GENERAL LECLERC","latitude":48.7868389124326,"longitude":2.46856657248876},{"number":3,"name":"03 - RUE DU GENERAL LECLERC - CENTRE ANCIEN","address":"En face du 1 ter rue de joly","latitude":48.7907886168279,"longitude":2.46489018474127},{"number":7,"name":"07- AVENUE DU DOCTEUR PAUL CASALIS","address":"Avenue du docteur Paul Casalis","latitude":48.78021352952279,"longitude":2.469692230994849},{"number":9,"name":"09 - EUROPARC","address":"ALLEE FERNAND POUILLON","latitude":48.76603756422197,"longitude":2.471314855226071},{"number":4,"name":"04 - UNIVERSITE - MAIL DES MECHES","address":"Avenue du Général de Gaulle","latitude":48.788110780811415,"longitude":2.446248652158302},{"number":10,"name":"10 - MAGELLAN","address":"RUE MAGELLAN","latitude":48.76895633113984,"longitude":2.456664667660431},{"number":2,"name":"02 - HOPITAL INTERCOMMUNAL (CHIC)","address":"AVENUE DE VERDUN","latitude":48.796173633089616,"longitude":2.46370624551545}]