[{"number":10,"name":"00010- PICASSO","address":"PICASSO - RUE PABLO PICASSO","latitude":47.216369613307506,"longitude":-1.534184544523239},{"number":38,"name":"00038-PLACE RICORDEAU","address":"PLACE RICORDEAU","latitude":47.212108463141774,"longitude":-1.553049129320471},{"number":66,"name":"00066-CHANZY","address":"CHANZY - FACE AU 23 AVENUE DE CHANZY","latitude":47.22542988533347,"longitude":-1.547999925907375},{"number":3,"name":"00003-STRASBOURG","address":"STRASBOURG - PLACE TIRANT LO BLANC","latitude":47.216479771820744,"longitude":-1.55154060534636},{"number":2,"name":"00002-HÔTEL DE VILLE","address":"HÔTEL DE VILLE - FACE AU 29 RUE DE STRASBOURG","latitude":47.21857181309145,"longitude":-1.553484290392954},{"number":62,"name":"00062-GARE NORD","address":"GARE NORD - 1 PLACE CHARLES LE ROUX","latitude":47.218132613316826,"longitude":-1.542208634875899},{"number":43,"name":"00043 - MACHINE DE L'ÎLE","address":"MACHINE DE L'ÎLE - 3 BD LEON BUREAU","latitude":47.20691895869599,"longitude":-1.564806790782994},{"number":58,"name":"00058-PALAIS DES SPORTS","address":"PALAIS DES SPORTS - 21 RUE RENE VIVIANI","latitude":47.208466072191925,"longitude":-1.535981000861306},{"number":94,"name":"00094-PETIT PORT","address":"PETIT PORT - BD DU PETIT PORT","latitude":47.243263914975486,"longitude":-1.556344610167984},{"number":84,"name":"00084-RÉGION","address":"REGION - RUE DE LA LOIRE","latitude":47.21074214218137,"longitude":-1.525933451925082},{"number":31,"name":"00031-BOURSE","address":"BOURSE - SQUARE DE LA BOURSE","latitude":47.212083030753185,"longitude":-1.559086551239872},{"number":74,"name":"00074-CANCLAUX","address":"CANCLAUX - 8 PLACE CANCLAUX","latitude":47.21433366088933,"longitude":-1.574924617192968},{"number":72,"name":"00072-BELLAMY-GUÉ MOREAU","address":"Bellamy-Gué Moreau-138 rue Paul Bellamy","latitude":47.22862569057461,"longitude":-1.561806393011127},{"number":40,"name":"00040-MADELEINE","address":"MADELEINE - 2 QUAI MONCOUSU","latitude":47.208804642437784,"longitude":-1.550411914119152},{"number":22,"name":"00022-MOQUECHIEN","address":"MOQUECHIEN - 8 RUE MOQUECHIEN","latitude":47.220392126691955,"longitude":-1.555531041936261},{"number":19,"name":"00019-SAINT SIMILIEN","address":"SAINT SIMILIEN - 1 PLACE SAINT SIMILIEN","latitude":47.219854467329974,"longitude":-1.558920890474776},{"number":51,"name":"00051-TABARLY","address":"3 BOULEVARD DE BERLIN DEVANT MAISON DE QUARTIER","latitude":47.2141946314965,"longitude":-1.52973588598036},{"number":89,"name":"00089-SAINT-AIGNAN","address":"SAINT AIGNAN - 65 BD ST AIGNAN","latitude":47.20743863754715,"longitude":-1.578689264310988},{"number":77,"name":"00077-ECOLE D'ARCHITECTURE","address":"ECOLE D'ARCHITECTURE - QUAI F MITTERRAND","latitude":47.207605640212115,"longitude":-1.557532467914316},{"number":42,"name":"00042-GARE MARITIME","address":"GARE MARITIME - PLACE JACKSONVILLE","latitude":47.20659772898787,"longitude":-1.572610286970505},{"number":87,"name":"00087-ANATOLE FRANCE","address":"ANATOLE FRANCE - 41 RUE ALEXANDRE DUMAS","latitude":47.223604815399085,"longitude":-1.571373578112414},{"number":47,"name":"00047- MARTYRS NANTAIS","address":"MARTYRS NANTAIS - 1 BD DES MARTYRS NANTAIS","latitude":47.20702417983412,"longitude":-1.548161311046709},{"number":102,"name":"00102-GARE PT ROUSSEAU","address":"GARE PONT ROUSSEAU - RUE DE LA GARE - REZE","latitude":47.19280351379784,"longitude":-1.549291898557657},{"number":97,"name":"00097-SAINT DONATIEN","address":"SAINT DONATIEN - PLACE DU 51éme RIMA","latitude":47.22908808709286,"longitude":-1.540292594289221},{"number":30,"name":"00030-COMMERCE","address":"COMMERCE - FACE PLACE DU COMMERCE","latitude":47.21312055103121,"longitude":-1.557393235628245},{"number":56,"name":"00056-VINCENT GACHE","address":"VINCENT GACHE - 9 RUE FRANCOIS ALBERT","latitude":47.206798618575256,"longitude":-1.541777739850638},{"number":7,"name":"00007- BARILLERIE","address":"BARILLERIE - 2 ALLEE PENTHIEVRE","latitude":47.215331358010445,"longitude":-1.556126125975167},{"number":27,"name":"00027-GUIST'HAU NORD","address":"GUIST'HAU NORD - 42 BD GUIST'HAU","latitude":47.21792981632508,"longitude":-1.569171883302444},{"number":15,"name":"00015-PLACE ARISTIDE BRIAND","address":"PLACE ARISTIDE BRIAND","latitude":47.21718482329023,"longitude":-1.562986793288367},{"number":83,"name":"00083-MILLERAND","address":"MILLERAND - 9 BD ALEXANDRE MILLERAND","latitude":47.208199645038825,"longitude":-1.530180435959972},{"number":45,"name":"00045-PRAIRIE AU DUC","address":"PRAIRIE AU DUC - 25 BOULEVARD DE LA PRAIRIE AU DUC","latitude":47.2047839355992,"longitude":-1.55892310936669},{"number":34,"name":"00034-MEDIATHEQUE","address":"MEDIATHEQUE - 24 QUAI DE LA FOSSE","latitude":47.210886925815934,"longitude":-1.561744905652581},{"number":103,"name":"00103 - STATION MOBILE","address":"Carrière Misery - Quai Marquis d'Aiguillon (station mobile)","latitude":47.200072,"longitude":-1.57968},{"number":18,"name":"00018-PLACE VIARME","address":"PLACE VIARME - 23 PLACE VIARME","latitude":47.22142933898549,"longitude":-1.563308366869757},{"number":91,"name":"00091-RD PT VANNES","address":"RD PT VANNES - 65 BD LE LASSEUR","latitude":47.229580605369215,"longitude":-1.572114577993728},{"number":46,"name":"00046-PLACE REPUBLIQUE","address":"PLACE DE LA REPUBLIQUE - 3 PLACE DE LA REPUBLIQUE","latitude":47.20532409029517,"longitude":-1.555183107916184},{"number":95,"name":"00095-MICHELET","address":"MICHELET - BD MICHELET","latitude":47.234687038295554,"longitude":-1.556421138973112},{"number":20,"name":"00020-BELLAMY","address":"BELLAMY - 50 RUE PAUL BELLAMY","latitude":47.222902006053054,"longitude":-1.557229797031573},{"number":85,"name":"00085-BEL AIR","address":"BEL AIR - 102 RUE PAUL BELLAMY","latitude":47.226394430986105,"longitude":-1.560022819676629},{"number":81,"name":"00081 - MANGIN","address":"MANGIN - DEV 8 PLACE MANGIN","latitude":47.20095551723967,"longitude":-1.545507251231619},{"number":55,"name":"00055-MAGELLAN","address":"MAGELLAN - 11 RUE DE BELFORT","latitude":47.21078140655944,"longitude":-1.544298470945214},{"number":78,"name":"00078-DE GAULLE","address":"DE GAULLE - PONT A. BRIAND / BD DE GAULLE","latitude":47.20844367718286,"longitude":-1.540514488290191},{"number":67,"name":"00067-PLACE WALDECK ROUSSEAU","address":"PLACE WALDECK ROUSSEAU","latitude":47.22777476106513,"longitude":-1.552147986072217},{"number":92,"name":"00092-DT PT RENNES","address":"RD PT RENNES - ANGLE BD LE LASSEUR & RUE PAUL BELLAMY","latitude":47.23302818477594,"longitude":-1.56605906933562},{"number":59,"name":"00059-STADE SAUPIN","address":"STADE SAUPIN - 35 QUAI MALAKOFF","latitude":47.21391161818379,"longitude":-1.539712888264826},{"number":53,"name":"00053-OLIVETTES","address":"OLIVETTES - 10 RUE DES OLIVETTES","latitude":47.211736393222054,"longitude":-1.549886024937758},{"number":57,"name":"00057-GAETAN RONDEAU","address":"GAETAN RONDEAU - 20 RUE GAETAN RONDEAU","latitude":47.205396132179104,"longitude":-1.537581863003988},{"number":76,"name":"00076-PLACE RENÉ BOUHIER","address":"PLACE RENE BOUHIER - 8 PLACE RENE BOUHIER","latitude":47.209429092524424,"longitude":-1.570515336280715},{"number":8,"name":"00008-BOUCHERIE","address":"BOUCHERIE - FACE AU 4 RUE DE LA BOUCHERIE","latitude":47.21620089258823,"longitude":-1.557111680197571},{"number":75,"name":"00075-LAMORICIERE","address":"LAMORICIERE - PLACE BEAUMANOIR","latitude":47.21230895884701,"longitude":-1.571369360221906},{"number":73,"name":"00073-SARRADIN","address":"SARRADIN - FACE AU 4 PLACE SARRADIN","latitude":47.220882433018865,"longitude":-1.570438598073934},{"number":25,"name":"00025-DALBY","address":"DALBY- 61 BD ERNEST DALBY FACE STATION SERVICE","latitude":47.223508869811994,"longitude":-1.529959592703474},{"number":93,"name":"00093-FACULTES","address":"FACULTES - ANGLE ROUTE DE LA JONELIERE & BD G. MOLLET","latitude":47.246298068423485,"longitude":-1.555309011107301},{"number":44,"name":"00044-PALAIS DE JUSTICE","address":"PALAIS DE JUSTICE - 19 QUAI FRANCOIS MITTERAND","latitude":47.20831728844152,"longitude":-1.561173077989395},{"number":48,"name":"00048-VERDUN","address":"VERDUN - 15 RUE DE VERDUN","latitude":47.217505374678645,"longitude":-1.551849784370311},{"number":1,"name":"00001-PREFECTURE","address":"PREFECTURE - 5 QUAI CEINERAY","latitude":47.220255183724454,"longitude":-1.55408380740881},{"number":99,"name":"00099-ST JACQUES","address":"ST JACQUES - RUE ST JACQUES","latitude":47.1958989090141,"longitude":-1.536540663464699},{"number":23,"name":"00023-BUAT","address":"BUAT - 118 RUE DE COULMIERS","latitude":47.227145468224634,"longitude":-1.542404741250403},{"number":80,"name":"00080 - VICTOR HUGO","address":"VICTOR HUGO - BD VICTOR HUGO","latitude":47.204003208491145,"longitude":-1.551548484803203},{"number":90,"name":"00090-PROCE","address":"PROCE - ANGLE BD G. SERPETTE & BD A. PAGEOT","latitude":47.22419506173264,"longitude":-1.576612843727262},{"number":61,"name":"00061-LU - LIEU UNIQUE","address":"LIEU UNIQUE - FACE 23 QUAI FERDINAND FAVRE","latitude":47.215591463959825,"longitude":-1.545905939112105},{"number":32,"name":"00032-FOCH","address":"FOCH - PLACE FOCH","latitude":47.2191122,"longitude":-1.5502297},{"number":17,"name":"00017-SAINTE ELISABETH","address":"SAINTE ELISABTEH - 3 PLACE STE ELISABETH","latitude":47.21921395261352,"longitude":-1.561570147641708},{"number":29,"name":"00029-DUGUAY TROUIN","address":"DUGUAY TROUIN - 7 ALLEE DUGUAY TROUIN","latitude":47.213450231365094,"longitude":-1.555269922656021},{"number":21,"name":"00021-MARCHE TALENSAC SUD","address":"MARCHE TALENSAC SUD - 6 RUE TALENSAC","latitude":47.22114332912908,"longitude":-1.556476339327795},{"number":50,"name":"00050-CHATEAU","address":"CHATEAU - 7 RUE DES ETATS","latitude":47.2151496951626,"longitude":-1.55022624256337},{"number":37,"name":"00037-FEYDEAU","address":"FEYDEAU - 1 ALLEE ILE GLORIETTE","latitude":47.211465063355035,"longitude":-1.5568245371939},{"number":71,"name":"00071-MARCHE TALENSAC NORD","address":"MARCHE TALENSAC NORD - 18 RUE TALENSAC","latitude":47.22185363818837,"longitude":-1.558940746690739},{"number":86,"name":"00086-HAUTS PAVÉS","address":"HAUT PAVES - ANGLE RUE DE BERRY/RUE DES HAUTS PAVES","latitude":47.22547062698044,"longitude":-1.567501842502272},{"number":41,"name":"00041-CHANTIER NAVAL","address":"CHANTIER NAVAL - 89 QUAI DE LA FOSSE","latitude":47.2083574798195,"longitude":-1.56952404874215},{"number":12,"name":"00012-PLACE DELORME","address":"PLACE DELORME","latitude":47.21515818868574,"longitude":-1.563900673465861},{"number":98,"name":"00098-HUIT MAI","address":"HUIT MAI - AVENUE DE LA LIBERATION - REZE","latitude":47.18921204751304,"longitude":-1.550828036456355},{"number":26,"name":"00026-GUIST'HAU SUD","address":"GUIST'HAU SUD - 26 BOULEVARD GUIST'HAU","latitude":47.21682795997449,"longitude":-1.567004526265165},{"number":52,"name":"00052-BACO","address":"BACO - FACE AU 8 ALLEE BACO","latitude":47.214327524589145,"longitude":-1.548750555741977},{"number":39,"name":"00039-QUAI MONCOUSU","address":"QUAI MONCOUSU - 11 QUAI MONCOUSU","latitude":47.209406573873714,"longitude":-1.555233144631466},{"number":35,"name":"00035-JEAN V","address":"JEAN V - 2 PLACE JEAN V","latitude":47.212168974412094,"longitude":-1.565543986075099},{"number":11,"name":"00011-CALVAIRE","address":"CALVAIRE - PL.DES VOLONTAIRES DE LA DEFENSE PASSIVE","latitude":47.215578942427136,"longitude":-1.560675283700123},{"number":101,"name":"00101 - PIRMIL","address":"PIRMIL - RUE ESNOUL DES CHATELETS","latitude":47.1965313642396,"longitude":-1.54156809120326},{"number":63,"name":"00063-JARDIN DES PLANTES","address":"JARDIN DES PLANTES - 6 RUE STANILAS BAUDRY","latitude":47.219834197318974,"longitude":-1.544718964531585},{"number":16,"name":"00016-PLACE EDOUARD NORMAND","address":"PLACE EDOUARD NORMAND - FACE AU 7 PLACE EDOUARD NORMAND","latitude":47.21902754473837,"longitude":-1.563419484053747},{"number":100,"name":"00100 - GRENERAIE","address":"GRENERAIE - PARC DE LA GRENERAIE","latitude":47.199923092905216,"longitude":-1.534717540470481},{"number":88,"name":"00088-MELLINET","address":"MELLINET - 1 BD ALLARD","latitude":47.211501070117826,"longitude":-1.577175414321782},{"number":70,"name":"00070-GARE SUD 2","address":"Quai Malakoff - côté canal st Félix","latitude":47.215505,"longitude":-1.542844},{"number":4,"name":"00004-MOULIN","address":"MOULIN - FACE AU 18 RUE DU MOULIN","latitude":47.216667582015184,"longitude":-1.5543847138777},{"number":96,"name":"00096-TORTIERE","address":"TORTIERE - BD EUGENE ORIEUX","latitude":47.235335222208626,"longitude":-1.549221766809888},{"number":64,"name":"00064-SAINT CLEMENT","address":"SAINT CLEMENT - FACE AU 37 RUE DU MARECHAL JOFFRE","latitude":47.221785183522634,"longitude":-1.547099233718495},{"number":54,"name":"00054- CITE INTERNATIONALE DES CONGRES","address":"CITE INTERNATIONAL DES CONGRES - 2 RUE DE JEMMAPES","latitude":47.213180085527846,"longitude":-1.544952541668585},{"number":14,"name":"00014-SAINT FÉLIX","address":"Saint Félix - 35 Boulevard Amiral Courbet","latitude":47.230334,"longitude":-1.556133},{"number":9,"name":"00009-GUEPIN","address":"GUEPIN - 8 RUE DE L'ARCHE SECHE","latitude":47.215814587139455,"longitude":-1.559017485167438},{"number":28,"name":"00028- PLACE DE L'EDIT NANTES","address":"PLACE DE L'EDIT DE NANTES","latitude":47.21446342738575,"longitude":-1.567568016663838},{"number":33,"name":"00033-RACINE","address":"RACINE - 4 RUE RACINE","latitude":47.213522613719896,"longitude":-1.563140874431397},{"number":24,"name":"00024-VERSAILLES","address":"VERSAILLES - FACE AU 25 QUAI DE VERSAILLES","latitude":47.22451490719107,"longitude":-1.553711961402328},{"number":68,"name":"00068-LIVET","address":"LIVET - FACE AU 65 RUE DUFOUR","latitude":47.2240678794875,"longitude":-1.54521243421509},{"number":65,"name":"00065-COURS SULLY","address":"COURS SULLY - FACE AU 9 COURS SULLY","latitude":47.222587339906696,"longitude":-1.551666442545979},{"number":69,"name":"00069 - MANUFACTURE","address":"MANUFACTURE - 11 BIS BD STALINGRAD","latitude":47.219216380711345,"longitude":-1.535847443276377},{"number":13,"name":"00013-BRETAGNE SUD","address":"BRETAGNE SUD - 1 RUE PIERRE CHEREAU","latitude":47.216787949913034,"longitude":-1.559161066618992},{"number":36,"name":"00036-ALGER","address":"ALGER - 10 RUE D'ALGER","latitude":47.210549,"longitude":-1.567368},{"number":82,"name":"00082-SEBILLEAU","address":"SEBILLEAU - 9 RUE GAETAN RONDEAU","latitude":47.206757512308414,"longitude":-1.533118244923623},{"number":5,"name":"00005-BROSSARD","address":"BROSSARD - 12 Allée Duquesne","latitude":47.2188372304694,"longitude":-1.55674926307655},{"number":6,"name":"00006-PLACE DU CIRQUE","address":"PLACE DU CIRQUE - 7 ALLEE DUQUESNE","latitude":47.21759668240601,"longitude":-1.556937645378872}]