[{"number":194,"name":"194_CALLE PARQUE DE DOÑANA","address":"CALLE PARQUE DE DOÑANA - Aprox. Calle Corral de los Olmos","latitude":37.418732603824466,"longitude":-5.97319415962488},{"number":126,"name":"126_AVENIDA REINA MERCEDES","address":"AVENIDA REINA MERCEDES - Aprox. Facultad de Informática","latitude":37.358164858839395,"longitude":-5.986482708713183},{"number":73,"name":"073_PLAZA SAN AGUSTIN","address":"PLAZA SAN AGUSTIN - Aprox. C/ Concepción","latitude":37.38951386231434,"longitude":-5.984362789545622},{"number":186,"name":"186_CALLE ORFEBRE DOMINGUEZ VÁZQUEZ","address":"CALLE ORFEBRE DOMINGUEZ VÁZQUEZ - Aprox. C/ Pino Montano","latitude":37.40860456343952,"longitude":-5.973161153696026},{"number":100,"name":"100_PASEO CATALINA RIBERA","address":"PASEO CATALINA RIBERA - Aprox. C/ San Fernando","latitude":37.381516148333745,"longitude":-5.98899864813969},{"number":96,"name":"096_CALLE BETIS","address":"CALLE BETIS - Aprox. C/ Juan de Lugo","latitude":37.3835407311529,"longitude":-5.999910722822249},{"number":132,"name":"132_CALLE PAEZ DE RIVERA","address":"CALLE PAEZ DE RIVERA - Aprox. Paseo de la Palmera","latitude":37.36361937962884,"longitude":-5.984785168525709},{"number":256,"name":"256_MIGUEL MONTORO","address":"Esquina Calle Pero Mingo","latitude":37.386100496778624,"longitude":-5.910090919676698},{"number":82,"name":"082_CALLE LUIS MONTOTO","address":"CALLE LUIS MONTOTO - Aprox. C/ Maese Farfán","latitude":37.387098477016366,"longitude":-5.974843147214583},{"number":202,"name":"202_AVENIDA MUJER TRABAJADORA","address":"AVENIDA MUJER TRABAJADORA - Aprox. Avda Miraflores","latitude":37.41146657719195,"longitude":-5.966763132907271},{"number":226,"name":"226_AVENIDA DOCTOR EMILIO LEMOS","address":"AVENIDA DOCTOR EMILIO LEMOS - Aprox. C/ de Birmania","latitude":37.402862871745285,"longitude":-5.921753676327738},{"number":103,"name":"103_AVENIDA EDUARDO DATO","address":"AVENIDA EDUARDO DATO - Aprox. C/ San Bernardo","latitude":37.384432463478554,"longitude":-5.982738173371375},{"number":16,"name":"016_CALLE DE MANUEL VILLALOBOS","address":"CALLE DE MANUEL VILLALOBOS - Aprox. C/ Sor Francisca Dorotea","latitude":37.40705079945115,"longitude":-5.982430505819379},{"number":143,"name":"143_CALLE RAMON DE CARRANZA","address":"CALLE RAMON DE CARRANZA - Aprox. C/ Virgen de la Oliva","latitude":37.37172440518047,"longitude":-6.00331223823691},{"number":46,"name":"046_PLAZA DEL PELICANO","address":"PLAZA DEL PELICANO - Aprox. C/ Enladrilladas","latitude":37.397593515590735,"longitude":-5.983873184934495},{"number":209,"name":"209_AVENIDA ALEMANIA","address":"AVENIDA ALEMANIA - Aprox. Glorieta Chekia","latitude":37.34531731164308,"longitude":-5.982656150368391},{"number":26,"name":"026_AVENIDA DE MIRAFLORES","address":"AVENIDA DE MIRAFLORES - Aprox. C/ Manuel Ródenas","latitude":37.40249453741322,"longitude":-5.977678166024575},{"number":255,"name":"255_PERO MINGO","address":"Esquina rotanda Torreblanca","latitude":37.385659308608595,"longitude":-5.913451790889467},{"number":221,"name":"221_AVENIDA ALCALDE LUIS URUÑUELA","address":"AVENIDA ALCALDE LUIS URUÑUELA - Aprox. Hotel Sevilla Congresos","latitude":37.40560856297865,"longitude":-5.930524002164018},{"number":128,"name":"128_VIRGEN DE LORETO","address":"Virgen de Loreto - Aprox. C/ Arcos","latitude":37.37645342505249,"longitude":-6.000632231559362},{"number":9,"name":"009_CAMINO DE LOS DESCUBRIMIENTOS","address":"CAMINO DE LOS DESCUBRIMIENTOS - Aprox. C/ Albert Einstein","latitude":37.40332453110276,"longitude":-6.004020258912579},{"number":119,"name":"119_AVENIDA DE CHILE","address":"AVENIDA DE CHILE - Aprox. Costurero de la Reina","latitude":37.37740443203299,"longitude":-5.991965201690994},{"number":33,"name":"033_CALLE LEÓN XIII","address":"CALLE LEÓN XIII - Aprox. C/ Antonio Pantión","latitude":37.401460531089214,"longitude":-5.983690186516563},{"number":200,"name":"200_CAMINO DE LOS TOROS","address":"CAMINO DE LOS TOROS - Aprox. C/ Mediterráneo","latitude":37.41891360818369,"longitude":-5.963217124751443},{"number":77,"name":"077_PLAZA CHAPINA","address":"PLAZA CHAPINA - Aprox. Hotel Abba Triana","latitude":37.389629475123165,"longitude":-6.007581263540937},{"number":249,"name":"249_CALLE NAVARRA","address":"CALLE NAVARRA - Aprox. C/ Cataluña","latitude":37.42475843174024,"longitude":-5.984823673360926},{"number":87,"name":"087_PLAZA NUEVA","address":"PLAZA NUEVA - Aprox. C/ Tetuan","latitude":37.38896647697466,"longitude":-5.995294220038549},{"number":188,"name":"188_AVENIDA HYTASA","address":"AVENIDA HYTASA - Aprox. C/ Romeral","latitude":37.37256042361221,"longitude":-5.963362098447178},{"number":36,"name":"036_CALLE SAN VICENTE","address":"CALLE SAN VICENTE - Aprox. C/ Guadalquivir","latitude":37.40050052188098,"longitude":-5.998403237581298},{"number":220,"name":"220_AVENIDA ALCALDE LUIS URUÑUELA","address":"AVENIDA ALCALDE LUIS URUÑUELA - Aprox. Centro Comercial Zona Este","latitude":37.40518956185269,"longitude":-5.935780020616404},{"number":21,"name":"021_CALLE MANUEL VILLALOBOS","address":"CALLE MANUEL VILLALOBOS - Aprox. C/ Madre San Marcelo","latitude":37.405473547892335,"longitude":-5.981527181236149},{"number":154,"name":"154_AVENIDA KANSAS CITY","address":"AVENIDA KANSAS CITY - Aprox. C/ Naranjito de Triana","latitude":37.394836510246314,"longitude":-5.96842612917054},{"number":24,"name":"024_CALLE LEÓN XIII","address":"CALLE LEÓN XIII - Aprox. C/ Fray Isidoro de Sevilla","latitude":37.404035541034794,"longitude":-5.984592191160378},{"number":38,"name":"038_CALLE DE INCA GARCILASO","address":"CALLE DE INCA GARCILASO - Aprox. C/ Juan Antonio de Vizarrón","latitude":37.3920814836453,"longitude":-6.011051277130786},{"number":203,"name":"203_CALLE TESALÓNICA","address":"CALLE TESALÓNICA - Calle Mazzantini","latitude":37.396093518802566,"longitude":-5.958764096016824},{"number":195,"name":"195_CALLE CORRAL DEL AGUA","address":"CALLE CORRAL DEL AGUA - Aprox. Camino de los toros","latitude":37.42171561628419,"longitude":-5.971648155914519},{"number":12,"name":"012_PLAZA DUQUESA DE ALBA","address":"PLAZA DUQUESA DE ALBA - Puente de la Barqueta","latitude":37.403869536605576,"longitude":-5.994904227249628},{"number":241,"name":"241_PLAZA NUEVA","address":"PLAZA NUEVA - Aprox. C/ Mendez Núñez","latitude":37.38881544328257,"longitude":-5.995863788052556},{"number":60,"name":"060_PLAZA DE LA CONCORDIA","address":"PLAZA DE LA CONCORDIA - Aprox. C/ Teniente Borges","latitude":37.39395749631202,"longitude":-5.996899228542791},{"number":208,"name":"208_AVENIDA DE GRECIA","address":"AAVENIDA DE GRECIA - Aprox. Avda de Italia","latitude":37.35065632807553,"longitude":-5.984190158922543},{"number":168,"name":"168_AVENIDA RAMÓN Y CAJAL","address":"AVENIDA RAMÓN Y CAJAL - Aprox. Avda de la Ciudad Jardín","latitude":37.37505743166244,"longitude":-5.967492114476132},{"number":169,"name":"169_AVENIDA RAMÓN Y CAJAL","address":"AVENIDA RAMÓN Y CAJAL - Aprox. C/ Villegas Marmolejo","latitude":37.37650143552164,"longitude":-5.972667133462907},{"number":206,"name":"206_AVENIDA KANSAS CITY","address":"AVENIDA KANSAS CITY - Aprox. C/ Macedonia","latitude":37.402963548427635,"longitude":-5.958211097806437},{"number":66,"name":"066_CALLE ARROYO","address":"CALLE ARROYO - Aprox. Avda. José Laguillo","latitude":37.39362550048881,"longitude":-5.981869175620968},{"number":61,"name":"061_PLAZA DEL MUSEO","address":"PLAZA DEL MUSEO - Aprox. C/ Alfonso XII","latitude":37.392813490850365,"longitude":-5.999344236464369},{"number":211,"name":"211_AVENIDA DE ALEMANIA","address":"AVENIDA DE ALEMANIA - Aprox. Glorieta de Letonia","latitude":37.34620231070945,"longitude":-5.976200128537064},{"number":41,"name":"041_PLAZA CALDERÓN DE LA BARCA","address":"PLAZA CALDERÓN DE LA BARCA - Aprox. C/ Amargura","latitude":37.39958252091155,"longitude":-5.991029211181825},{"number":125,"name":"125_AVENIDA SAN FRANCISCO JAVIER","address":"AVENIDA SAN FRANCISCO JAVIER - Aprox. Avda De Ramón y Cajal","latitude":37.377406438312754,"longitude":-5.974900141818838},{"number":58,"name":"058_CALLE REGINA","address":"CALLE REGINA - Aprox. Pza de la Encarnación","latitude":37.39436722277961,"longitude":-5.991544993040244},{"number":148,"name":"148_CALLE THARSIS","address":"CALLE THARSIS - Aprox. C/ Aorno","latitude":37.39876767567268,"longitude":-5.973182395926595},{"number":118,"name":"118_PLAZA DE CUBA","address":"PLAZA DE CUBA - Aprox. Puente de San Telmo","latitude":37.379791416292186,"longitude":-5.997107796424417},{"number":122,"name":"122_CALLE ENRAMADILLA","address":"CALLE ENRAMADILLA - Aprox. C/ Balbino Marrón","latitude":37.37848444133301,"longitude":-5.978389154681133},{"number":192,"name":"192_AVENIDA DE ALVAR NUÑEZ","address":"AVENIDA DE ALVAR NUÑEZ - Aprox. C/ Collante","latitude":37.37833442855656,"longitude":-6.011556270990402},{"number":101,"name":"101_PRADO DE SAN SEBASTIAN","address":"PRADO DE SAN SEBASTIAN - Estación de autobuses","latitude":37.38111568185353,"longitude":-5.986949751279455},{"number":67,"name":"067_CALLE LEONARDO DA VINCI","address":"CALLE LEONARDO DA VINCI - Aprox. C/ Albert Einstein","latitude":37.404162533250535,"longitude":-6.00730227091074},{"number":246,"name":"246_PUERTO DE LOS AZORES","address":"PUERTO DE LOS AZORES - Aprox. C/ Paulo Orosio","latitude":37.376139062455664,"longitude":-5.955017317014327},{"number":207,"name":"207_CALLE IFNI","address":"CALLE IFNI - Aprox. Avda de Holanda","latitude":37.35501634616241,"longitude":-5.982370155065175},{"number":102,"name":"102_CALLE JUAN DE MATA CARRIAZO","address":"CALLE JUAN DE MATA CARRIAZO - Aprox. antigua estación San Bernardo","latitude":37.38273945636004,"longitude":-5.983720175839885},{"number":173,"name":"173_RONDA TAMARGUILLO","address":"RONDA TAMARGUILLO - Aprox. Avda de la Paz","latitude":37.370048411458974,"longitude":-5.968064113583803},{"number":14,"name":"014_AVENIDA SANCHEZ PIZJUAN","address":"AVENIDA SANCHEZ PIZJUAN - Facultad de Medicina","latitude":37.4064737057759,"longitude":-5.989118739088445},{"number":171,"name":"171_CALLE ALFONSO LASO DE LA VEGA","address":"CALLE ALFONSO LASO DE LA VEGA - Aprox. Parroco Antonio González","latitude":37.36614639337372,"longitude":-5.974870135199807},{"number":59,"name":"059_AVENIDA DE LA PALMERA","address":"AVENIDA DE LA PALMERA - Aprox. Avenida del Líbano","latitude":37.37123840842449,"longitude":-5.989210188461531},{"number":232,"name":"232_AVENIDA ALCALDE LUIS URUÑUELA","address":"AVENIDA ALCALDE LUIS URUÑUELA - Aprox. Pza de la Acogida","latitude":37.40393955876748,"longitude":-5.939739033438785},{"number":167,"name":"167_GLORIETA BIZCO AMATE","address":"GLORIETA BIZCO AMATE - Aprox. Avda Ramón y Cajal","latitude":37.37334966832237,"longitude":-5.964933613203329},{"number":81,"name":"081_CALLE LUIS MONTOTO","address":"CALLE LUIS MONTOTO - Aprox. C/ Benitos Mas y Prat","latitude":37.387156202671285,"longitude":-5.971016767894659},{"number":234,"name":"234_CALLE MÉDICOS SIN FRONTERA","address":"CALLE MÉDICOS SIN FRONTERA - Aprox. Avda de las Ciencias","latitude":37.3999401269442,"longitude":-5.925163964339344},{"number":253,"name":"253_HOSPITAL VALME","address":"HOPITAL VALME.-Esquina Carretera Bellasvistas","latitude":37.320417860390016,"longitude":-5.96902252657327},{"number":64,"name":"064_CALLE CUESTA DE ROSARIO","address":"CALLE CUESTA DE ROSARIO - Pza de la Pescadería","latitude":37.38985648205481,"longitude":-5.991125205922743},{"number":79,"name":"079_PLAZA DE LAS MERCEDARIAS","address":"PLAZA DE LAS MERCEDARIAS - Aprox. C/ Ibarra","latitude":37.388326477494125,"longitude":-5.98690419023187},{"number":235,"name":"235_CIUDAD DE CHIVA","address":"CIUDAD DE CHIVA - Aprox. C/ ciudad de Alfajar","latitude":37.411735810991,"longitude":-5.929859071297002},{"number":227,"name":"227_AVENIDA ALCALDE LUIS URUÑUELA","address":"AVENIDA ALCALDE LUIS URUÑUELA - Aprox. C/ Carlinga","latitude":37.39075351415996,"longitude":-5.91963595581283},{"number":90,"name":"090_CALLE ROMA","address":"CALLE ROMA - Aprox. C/ Palos de la Frontera","latitude":37.381198446608074,"longitude":-5.993528209364882},{"number":214,"name":"214_AVENIDA DE ANDALUCIA","address":"AVENIDA DE ANDALUCIA - Aprox. Entrada TUSSAM","latitude":37.38714348690405,"longitude":-5.948410054553437},{"number":224,"name":"224_AVENIDA DE LAS CIENCIAS","address":"AVENIDA DE LAS CIENCIAS - Aprox. C/ de Ulises","latitude":37.397013539467245,"longitude":-5.923756974136509},{"number":117,"name":"117_AVDA ESPERANZA DE TRIANA","address":"AVDA ESPERANZA DE TRIANA - Aprox. Avda Republica Argentina","latitude":37.377806429728786,"longitude":-6.002613239293098},{"number":160,"name":"160_PASEO CRISTOBAL COLON","address":"PASEO CRISTOBAL COLON - Aprox. Puente de Triana","latitude":37.387178,"longitude":-6.001376},{"number":123,"name":"123_ESTADIO OLIMPICO","address":"ESTADIO OLIMPICO","latitude":37.41585058006381,"longitude":-6.005474271334001},{"number":258,"name":"258_ESTACA DE VARES","address":"Esquina Calle Creus","latitude":37.38369648551305,"longitude":-5.914819934855601},{"number":142,"name":"142_CALLE RAMON DE CARRANZA","address":"CALLE RAMON DE CARRANZA - Aprox. C/ Asunción","latitude":37.371651407131054,"longitude":-5.997212216783402},{"number":244,"name":"244_AVENIDA LOS GAVILANES","address":"AVENIDA LOS GAVILANES - Aprox. Avda Juan XXIII","latitude":37.3780400290467,"longitude":-5.95178368562984},{"number":190,"name":"190_AVENIDA HYTASA","address":"AVENIDA HYTASA - Aprox. C/ Herramienta","latitude":37.36873540997663,"longitude":-5.957293074803896},{"number":247,"name":"247_AVDA. RAMON Y CAJAL","address":"Esquina con C/Enramadilla","latitude":37.37823143994186,"longitude":-5.979362157954825},{"number":51,"name":"051_AVENIDA TORNEO","address":"AVENIDA TORNEO - Aprox. C/ Luis Rey Romero","latitude":37.395519500564795,"longitude":-6.002321248467498},{"number":251,"name":"251_AVDA. CRUZ CAMPO","address":"Esquina con Alejandro Collantes","latitude":37.384349424571234,"longitude":-5.965378365247481},{"number":141,"name":"141_CALLE FELIPE II","address":"CALLE FELIPE II - Aprox. C/ Ramón Carande","latitude":37.37173344957564,"longitude":-5.981895354240737},{"number":242,"name":"242_PLAZA NUEVA","address":"PLAZA NUEVA - Aprox. C/ Mendez Núñez","latitude":37.38881830392981,"longitude":-5.995750976296489},{"number":43,"name":"043_RONDA CAPUCHINOS","address":"RONDA CAPUCHINOS - Aprox. C/ Maestro Quiroga","latitude":37.399156087435365,"longitude":-5.982736630025496},{"number":237,"name":"237_CIUDAD DE CHIVA","address":"CIUDAD DE CHIVA - Aprox. C/ Ildefonso Marañon","latitude":37.409334585727706,"longitude":-5.923254979770833},{"number":11,"name":"011_ALBERTO JIMÉNEZ BECERRIL","address":"Avda Alberto Jiménez Becerril - Antes Calle Maimonides","latitude":37.4071428838914,"longitude":-5.99259029973418},{"number":218,"name":"218_PLAZA DEL ALTOZANO","address":"PLAZA DEL ALTOZANO - Aprox. C/ San Jorge","latitude":37.38512441847878,"longitude":-6.003542147441712},{"number":27,"name":"027_AVENIDA DE LLANES","address":"AVENIDA DE LLANES - Aprox C/ Escultor Francisco Buiza","latitude":37.403877544974165,"longitude":-5.972090147223454},{"number":1,"name":"001_GLORIETA OLIMPICA","address":"GLORIETA OLIMPICA - Aprox. Concejal Alberto Jiménez-Becerril","latitude":37.4129235511391,"longitude":-5.98890593824315},{"number":196,"name":"196_CALLE ESTRELLA CANOPUS","address":"CALLE ESTRELLA CANOPUS - Aprox. C/ estrella Betelgeuse","latitude":37.42470162875488,"longitude":-5.970101152202059},{"number":217,"name":"217_CALLE DE LA A.D.A.","address":"CALLE DE LA A.D.A. - Aprox. C/ Jerusalén","latitude":37.393874505420214,"longitude":-5.962371106824864},{"number":62,"name":"062_PLAZA DE ARMAS","address":"PLAZA DE ARMAS - Avda Torneo (estación de autobuses)","latitude":37.391061482462725,"longitude":-6.003150248813141},{"number":153,"name":"153_AVENIDA REINA MERCEDES","address":"AVENIDA REINA MERCEDES - Aprox. Escuela de arquitectura","latitude":37.36297137649665,"longitude":-5.986262173333679},{"number":216,"name":"216_CALLE ANTIOQUIA","address":"CALLE ANTIOQUIA - Aprox. Avda de Pedro Romero","latitude":37.39993753083735,"longitude":-5.95628508908707},{"number":140,"name":"140 NUESTRA SEÑORA DE LAS MERCEDES","address":"140 NUESTRA SEÑORA DE LAS MERCEDES","latitude":37.3723704173039,"longitude":-5.97736214754443},{"number":48,"name":"048_CALLE CHURRUCA","address":"CALLE CHURRUCA - Aprox. C/ Gonzáles Cuadrado","latitude":37.39715651121527,"longitude":-5.991066209916829},{"number":248,"name":"248_GLORIETA DE LOS FERROVIARIOS","address":"GLORIETA DE LOS FERROVIARIOS - Aprox. C/ Navarra","latitude":37.421903023693936,"longitude":-5.983004288085699},{"number":80,"name":"080_CALLE LUIS MONTOTO","address":"CALLE LUIS MONTOTO - Aprox. C/ Alberto Duero","latitude":37.3876274768589,"longitude":-5.98102716921146},{"number":17,"name":"017_CALLE DE MADRESELVA","address":"CALLE DE MADRESELVA - Aprox. Ronda de Pio XII","latitude":37.40715155556869,"longitude":-5.978840172776446},{"number":49,"name":"049_ALAMEDA DE HERCULES","address":"ALAMEDA DE HERCULES - Aprox. C/ Amor de Dios","latitude":37.39686550900737,"longitude":-5.99392721978722},{"number":91,"name":"091_CALLE PROCURADOR","address":"CALLE PROCURADOR - Clara de Jesús Monteto","latitude":37.38690746421921,"longitude":-6.007674262301094},{"number":110,"name":"110_CIUDAD DE RONDA","address":"Ciudad de Ronda - Aprox. Avda Carlos V","latitude":37.37972144428237,"longitude":-5.983801174387398},{"number":184,"name":"184_AVENIDA ALCALDE MANUEL DEL VALLE","address":"AVENIDA ALCALDE MANUEL DEL VALLE - Aprox. C/ San Juan de la Salle","latitude":37.408524564095075,"longitude":-5.97049314429485},{"number":133,"name":"133_AVENIDA SANTA FE","address":"AVENIDA SANTA FE - Aprox. C/ Virgen de la Oliva","latitude":37.37403941410158,"longitude":-6.004198242683363},{"number":115,"name":"115_CALLE LOPEZ DE GOMARA","address":"CALLE LOPEZ DE GOMARA - En frente Instituto Adolfo Becker","latitude":37.377892428375446,"longitude":-6.007237255573729},{"number":191,"name":"191_GLORIETA CARLOS CANO","address":"GLORIETA CARLOS CANO - Aprox. C/ Blas Infante","latitude":37.37411641267212,"longitude":-6.008853259077473},{"number":187,"name":"187_CALLE DOCTOR LAFFON","address":"CALLE DOCTOR LAFFON - Aprox. C/ Efeso","latitude":37.39540051410288,"longitude":-5.964043114126317},{"number":165,"name":"165_AVENIDA DE ANDALUCIA","address":"AVENIDA DE ANDALUCIA - Aprox. Centro Comercial Los Arcos","latitude":37.38764548429808,"longitude":-5.96095309881845},{"number":205,"name":"205_AVENIDA KANSAS CITY","address":"AVENIDA KANSAS CITY - Aprox. Pza el Tato","latitude":37.39981714629299,"longitude":-5.961922341869038},{"number":149,"name":"149_CALLE ARROYO","address":"CALLE ARROYO - Aprox. C/ Tena","latitude":37.397829929383,"longitude":-5.97567172039552},{"number":259,"name":"259_OCHO DE MARZO","address":"Esquina Calle Aguila Perdicera","latitude":37.36731840562508,"longitude":-5.954117063090828},{"number":250,"name":"250_CALLE DE SALVADOR ALLENDE","address":"CALLE DE SALVADOR ALLENDE - Aprox. C/ de Marruecos","latitude":37.421879,"longitude":-5.985663},{"number":106,"name":"106_AVENIDA EDUARDO DATO","address":"AVENIDA EDUARDO DATO - Aprox. C/ Oscar Carvallo","latitude":37.383797462883464,"longitude":-5.977454154468565},{"number":22,"name":"022_AVENIDA DE LLANES","address":"AVENIDA DE LLANES - Aprox. Avda de Miraflores","latitude":37.40512954896668,"longitude":-5.974831157557763},{"number":177,"name":"177_AVENIDA ALCALDE JUAN FERNÁNDEZ","address":"AVENIDA ALCALDE JUAN FERNÁNDEZ - Aprox. C/ Profesor Buenaventura Pinillos","latitude":37.373068423133994,"longitude":-5.9690941189446},{"number":222,"name":"222_AVENIDA ALCALDE LUIS URUÑUELA","address":"AVENIDA ALCALDE LUIS URUÑUELA - Aprox. Palacio de los Congresos","latitude":37.40508356497133,"longitude":-5.933616012901859},{"number":88,"name":"088_CALLE AMERICO VESPUCIO","address":"CALLE AMERICO VESPUCIO - Aprox. C/ Hermanos d'Eluyar","latitude":37.40934127713802,"longitude":-6.006338859390215},{"number":97,"name":"097_PASEO DE CRISTÓBAL COLÓN","address":"PASEO DE CRISTÓBAL COLÓN - Aprox. Torre del Oro","latitude":37.381535447210965,"longitude":-5.995552216661944},{"number":7,"name":"007_CALLE AMÉRICO VESPUCIO","address":"CALLE AMÉRICO VESPUCIO - Aprox. Calle de Jacques Cousteau","latitude":37.4074694906696,"longitude":-6.007603350403363},{"number":45,"name":"045_CARRETERA DE CARMONA","address":"CARRETERA DE CARMONA - Aprox. C/ de Francisco de Ariño","latitude":37.39992052707672,"longitude":-5.97781616502751},{"number":257,"name":"257_TORRES ALBARRACIN","address":"Esquina corazon de MAria","latitude":37.38376948792722,"longitude":-5.908921914235877},{"number":86,"name":"086_CAMINO DE LOS DESCUBRIMIENTOS","address":"CAMINO DE LOS DESCUBRIMIENTOS - Aprox. Pasarela de la Cartuja","latitude":37.39707250530929,"longitude":-6.006304263337968},{"number":5,"name":"005_CAMINO DE LOS DESCUBRIMIENTOS","address":"CAMINO DE LOS DESCUBRIMIENTOS - Aprox. C/ Thomás Alba Edison","latitude":37.41104356266495,"longitude":-6.001959256107801},{"number":164,"name":"164_CALLE LUIS MONTOTO","address":"CALLE LUIS MONTOTO - Aprox. C/ El Greco","latitude":37.387649350924015,"longitude":-5.965655252045698},{"number":4,"name":"004_CALLE LEONARDO DA VINCI","address":"CALLE LEONARDO DA VINCI - Aprox C/ Thomas Alba Edison","latitude":37.41011155757378,"longitude":-6.005722268777397},{"number":136,"name":"136_CALLE ASUNCIÓN","address":"CALLE ASUNCIÓN - Aprox. C/ Virgen de la Antigua","latitude":37.37311941284756,"longitude":-5.997610219028108},{"number":176,"name":"176_AVENIDA DE LA CIUDAD JARDÍN","address":"AVENIDA DE LA CIUDAD JARDÍN - Aprox. C/ Profesor Braña","latitude":37.3775594419921,"longitude":-5.966557112643772},{"number":83,"name":"083_AVENIDA LA BUHAIRA","address":"AVENIDA LA BUHAIRA - Aprox. Avda Luis Montoto","latitude":37.386955475268515,"longitude":-5.978051158384551},{"number":15,"name":"015_CALLE DR MARAÑON","address":"CALLE DR MARAÑON - Aprox. C/ San Juan de Ribera","latitude":37.40604157176221,"longitude":-5.985733700014785},{"number":104,"name":"104_AVENIDA EDUARDO DATO","address":"AVENIDA EDUARDO DATO - Aprox. C/ Fuenteovejuna","latitude":37.38413592692444,"longitude":-5.979676676296534},{"number":193,"name":"193_AVENIDA DE CORIA","address":"AVENIDA DE CORIA - Aprox. C/ Coruña","latitude":37.38111143948424,"longitude":-6.012005274166835},{"number":212,"name":"212_AVENIDA REINIDO UNIDO","address":"AVENIDA REINIDO UNIDO - Aprox. Avda de Italia","latitude":37.351582337691354,"longitude":-5.977784137525409},{"number":179,"name":"179_RONDA URBANA NORTE","address":"RONDA URBANA NORTE - Aprox. C/ de Rimas","latitude":37.413163177395056,"longitude":-5.985131221637643},{"number":166,"name":"166_RONDA DEL TAMARGUILLO","address":"RONDA DEL TAMARGUILLO - Aprox. Centro Comercial Los Arcos","latitude":37.38859048869724,"longitude":-5.959240093357595},{"number":18,"name":"018_AVENIDA EDUARDO DATO","address":"AVENIDA EDUARDO DATO - Aprox. C/ Marqués del Nervión","latitude":37.38207545943934,"longitude":-5.968121120738779},{"number":6,"name":"006_CAMINO DE LOS DESCUBRIMIENTOS","address":"CAMINO DE LOS DESCUBRIMIENTOS - Aprox. Calle Isaac Newton","latitude":37.40661378981103,"longitude":-6.002977947581603},{"number":99,"name":"099_CALLE AMÉRICO VESPUCIO","address":"CALLE AMÉRICO VESPUCIO - Aprox. Gerencia de Urbanismo de Sevilla","latitude":37.397394505010546,"longitude":-6.010641278744458},{"number":13,"name":"013_CALLE FERIA","address":"CALLE FERIA - Aprox. C/ Resolana","latitude":37.40313353475898,"longitude":-5.991918216341031},{"number":69,"name":"069_CALLE JOSE LAGUILLO","address":"CALLE JOSE LAGUILLO - Aprox. Pablo Iglesias","latitude":37.39201049535389,"longitude":-5.978293162147303},{"number":170,"name":"170_PLAZA ANTONIO APARICIO HERRERO","address":"PLAZA ANTONIO APARICIO HERRERO - Aprox. C/ San Juan de Dios","latitude":37.37896644673701,"longitude":-5.968923121755333},{"number":198,"name":"198_CALLE MAR DE ALBORÁN","address":"CALLE MAR DE ALBORÁN - Aprox. C/ Camino de los Toros","latitude":37.42044661256891,"longitude":-5.967956142243533},{"number":219,"name":"219_CALLE DE LA A.D.A.","address":"CALLE DE LA A.D.A. - Aprox. C/ de Tesalónica","latitude":37.3905365010144,"longitude":-5.959072093702479},{"number":137,"name":"137_AVENIDA DE LA BORBOLLA","address":"AVENIDA DE LA BORBOLLA - Aprox. C/ Porvenir","latitude":37.37375841984501,"longitude":-5.985517176959137},{"number":68,"name":"068_CALLE JUAN ANTONIO CABESTANY","address":"CALLE JUAN ANTONIO CABESTANY - Aprox. Calle Júpiter","latitude":37.39029248788509,"longitude":-5.979964167018684},{"number":254,"name":"254_ALHAMBRA","address":"ALHAMBRA.- Esquina Carretera Bellasvistas","latitude":37.32942977136568,"longitude":-5.968971229675001},{"number":138,"name":"138_CALLE RAMÓN CARANDE","address":"CALLE RAMÓN CARANDE - Aprox. C/ San Salvador","latitude":37.374370424709774,"longitude":-5.978934154215835},{"number":240,"name":"240_AVENIDA ALCALDE LUIS URUÑUELA","address":"AVENIDA ALCALDE LUIS URUÑUELA - Aprox. Cueva de la Pileta","latitude":37.402579544488994,"longitude":-5.940435585086025},{"number":260,"name":"260_REVOLTOSA","address":"Aproximado Parque Amate","latitude":37.377023215492045,"longitude":-5.947035486155897},{"number":44,"name":"044_RONDA CAPUCHINOS","address":"RONDA CAPUCHINOS - Aprox. C/ Corinto","latitude":37.39833897229492,"longitude":-5.981640026763738},{"number":84,"name":"084_CALLE JOSÉ MARÍA MORENO GALVÁN","address":"CALLE JOSÉ MARÍA MORENO GALVÁN - Aprox. C/ Juan Antonio Cabestany","latitude":37.387350475004816,"longitude":-5.983068176211725},{"number":74,"name":"074_PLAZA PILATOS","address":"PLAZA PILATOS - Aprox. C/ San Esteban","latitude":37.38977148326459,"longitude":-5.986897191039803},{"number":245,"name":"245_CALLE LAS LEANDRAS","address":"Aprox. Avda Los Gavilanes","latitude":37.37539881124939,"longitude":-5.952549466245021},{"number":150,"name":"150_CALLE SAN JUAN BOSCO","address":"CALLE SAN JUAN BOSCO - Aprox. C/ Arroyo","latitude":37.39674851413617,"longitude":-5.978634166071806},{"number":42,"name":"042_PLAZA CRONISTA","address":"PLAZA CRONISTA - Aprox. C/ Divina Pastora","latitude":37.3987059174522,"longitude":-5.989460016816095},{"number":199,"name":"199_MAR DE ALBORÁN","address":"MAR DE ALBORÁN - Aprox. Corral de los Olmos","latitude":37.417855601747895,"longitude":-5.969296145455354},{"number":93,"name":"093_RONDA DE TRIANA","address":"RONDA DE TRIANA - Aprox. C/ San Vicente de Paul","latitude":37.38312344793415,"longitude":-6.010876271362328},{"number":113,"name":"113_PLAZA SAN MARTÍN DE PORRES","address":"PLAZA SAN MARTÍN DE PORRES - Aprox. Avda Alvar Núñez","latitude":37.380778439190046,"longitude":-6.009179264054355},{"number":94,"name":"094_PLAZA DEL ZURRAQUE","address":"PLAZA DEL ZURRAQUE - Aprox. C/ Doc. Jeronimo Pou","latitude":37.383369449862734,"longitude":-6.008294262440252},{"number":152,"name":"152_CALLE SAMANIEGO","address":"CALLE SAMANIEGO - Aprox. C/ Esperanza de la Trinidad","latitude":37.3957905118738,"longitude":-5.97437315057576},{"number":109,"name":"109_AVENIDA SAN FRANCISCO JAVIER","address":"AVENIDA SAN FRANCISCO JAVIER - Aprox. C/ Camilo José Cela","latitude":37.37988413609134,"longitude":-5.974382770011586},{"number":98,"name":"098_AVENIDA DE ROMA","address":"AVENIDA DE ROMA - Puerta de Jerez","latitude":37.382043350305,"longitude":-5.993030169261488},{"number":3,"name":"003_PUERTA DE LA BARQUETA","address":"PUERTA DE LA BARQUETA - Aprox. Puente de la Barqueta","latitude":37.40564154237001,"longitude":-5.998488240831263},{"number":19,"name":"019_PARLAMENTO","address":"PARLAMENTO - Aprox. C/ Don Fadrique","latitude":37.403327536585486,"longitude":-5.989037206345736},{"number":147,"name":"147_CARRETERA DE CARMONA","address":"CARRETERA DE CARMONA - Aprox. C/ Maestro Solano","latitude":37.40079553153059,"longitude":-5.975228156455095},{"number":185,"name":"185_AVENIDA ALCALDE MANUEL DEL VALLE","address":"AVENIDA ALCALDE MANUEL DEL VALLE - Aprox. C/ Alejandro Sawa","latitude":37.40509431569403,"longitude":-5.968862135165761},{"number":63,"name":"063_CALLE SAN PABLO","address":"CALLE SAN PABLO - Aprox. C/ Bailén","latitude":37.390456481894525,"longitude":-5.998103230753266},{"number":204,"name":"204_CALLE DOCTOR LAFFON","address":"CALLE DOCTOR LAFFON - Aprox. C/ Tesalonica","latitude":37.39768969188425,"longitude":-5.96160136486722},{"number":78,"name":"078_CALLE ALFARERIA","address":"CALLE ALFARERIA - Aprox. Ronda de Triana","latitude":37.38857113316299,"longitude":-6.010282378350756},{"number":130,"name":"130_GLORIETA REPUBLICA DOMINICANA","address":"GLORIETA REPUBLICA DOMINICANA - Aprox. C/ López de Gomara","latitude":37.37574541795484,"longitude":-6.005247727302032},{"number":145,"name":"145_AVENIDA REINA MERCEDES","address":"AVENIDA REINA MERCEDES - Aprox. C/ Profesor García González","latitude":37.360233228861155,"longitude":-5.986318234050904},{"number":239,"name":"239_CALLE CIUDAD DE LIRIA","address":"CALLE CIUDAD DE LIRIA - Aprox. Avda de Fernando","latitude":37.408691582745696,"longitude":-5.927718994548674},{"number":29,"name":"029_CARRETERA DE CARMONA","address":"CARRETERA DE CARMONA - Aprox. Avda de Llanes","latitude":37.402463540044714,"longitude":-5.970145139589757},{"number":182,"name":"182_CALLE VICTORIA KENT","address":"CALLE VICTORIA KENT - Aprox. Avda Alcalde Manuel del Valle","latitude":37.41459658707776,"longitude":-5.973881159661203},{"number":31,"name":"031_AVENIDA DE MIRAFLORES","address":"AVENIDA DE MIRAFLORES - Aprox. C/ Albaida","latitude":37.40054152885159,"longitude":-5.979781172277264},{"number":172,"name":"172_RONDA TAMARGUILLO","address":"RONDA TAMARGUILLO - Aprox. Alfonso Laso de la Vega","latitude":37.367172398818624,"longitude":-5.971211122957581},{"number":158,"name":"158_AVENIDA CARDENAL BUENO MONREAL","address":"AVENIDA CARDENAL BUENO MONREAL - Aprox. C/ Bogota","latitude":37.3688534016955,"longitude":-5.981618160442233},{"number":163,"name":"163_CALLE SINAÍ","address":"CALLE SINAÍ - Aprox. C/ Baltazar Gracián","latitude":37.38995448989595,"longitude":-5.970802134688754},{"number":156,"name":"156_AVENIDA KANSAS CITY","address":"AVENIDA KANSAS CITY - Aprox. C/ Baltasar Gracián","latitude":37.391453411096606,"longitude":-5.972761755091493},{"number":161,"name":"161_AVENIDA ALCALDE MANUEL DEL VALLE","address":"AVENIDA ALCALDE MANUEL DEL VALLE - Aprox. C/ Baltasar de Alcázar","latitude":37.40000053060032,"longitude":-5.969103134518509},{"number":23,"name":"023_PARLAMENTO","address":"PARLAMENTO - Aprox. C/ San Juan de Ribera","latitude":37.403337536978945,"longitude":-5.98787920228648},{"number":120,"name":"120_GLORIETA SAN DIEGO","address":"GLORIETA SAN DIEGO - Aprox. C/ Palos de la Frontera","latitude":37.37896144135567,"longitude":-5.989966195594725},{"number":8,"name":"008_CALLE AMERICO VESPUCIO","address":"CALLE AMERICO VESPUCIO - Aprox. C/ Gregor Mendel","latitude":37.4009693828541,"longitude":-6.00938173537619},{"number":210,"name":"210_PASEO DE EUROPA","address":"PASEO DE EUROPA - Aprox. Ava de Francia","latitude":37.348061320332235,"longitude":-5.980058142587488},{"number":30,"name":"030_AVENIDA EDUARDO DATO","address":"AVENIDA EDUARDO DATO - Detrás Estadio Sánchez Pizjuan","latitude":37.382628460642394,"longitude":-5.970853130640082},{"number":71,"name":"071_AVENIDA KANSAS CITY","address":"AVENIDA KANSAS CITY - Aprox. Hotel Occidental","latitude":37.39003048884624,"longitude":-5.974491147670695},{"number":108,"name":"108_AVENIDA EDUARDO DATO","address":"AVENIDA EDUARDO DATO - Aprox. Avda de San Francisco Javier","latitude":37.382852503457265,"longitude":-5.973249491935667},{"number":2,"name":"002_GRAN PLAZA","address":"GRAN PLAZA - Aprox. Calle Marquez de Pickman","latitude":37.381578045327934,"longitude":-5.96522396639778},{"number":37,"name":"037_ALAMEDA DE HÉRCULES","address":"ALAMEDA DE HÉRCULES - Aprox. C/ Vulcano","latitude":37.398785772824745,"longitude":-5.99318901314001},{"number":233,"name":"233_AVENIDA ALCALDE LUIS URUÑUELA","address":"AVENIDA ALCALDE LUIS URUÑUELA - Aprox. Estación de RENFE","latitude":37.404112556103925,"longitude":-5.937092024971125},{"number":230,"name":"230_AVENIDA DE LAS CIENCIAS","address":"AVENIDA DE LAS CIENCIAS - Aprox. Avda de la Republica China","latitude":37.403927559446025,"longitude":-5.928139993197263},{"number":178,"name":"178_CALLE JOSÉ SARAMAGO","address":"CALLE JOSÉ SARAMAGO - Aprox. Avda del Alcalde Juan Fernández","latitude":37.373304076262805,"longitude":-5.97391890132113},{"number":75,"name":"075_PLAZA SAN FRANCISCO","address":"PLAZA SAN FRANCISCO - Aprox C/ Hernando Colón","latitude":37.387997377700096,"longitude":-5.993587446638155},{"number":236,"name":"236_CIUDAD DE CHIVA","address":"CIUDAD DE CHIVA - Aprox. C/ ciudad de Liria","latitude":37.4102171143178,"longitude":-5.926422374057527},{"number":243,"name":"243_GLORIETA DEL PRIMERO DE MAYO","address":"GLORIETA DEL PRIMERO DE MAYO - Aprox. C/ Carlos Marx","latitude":37.380439481169994,"longitude":-5.953481197462845},{"number":54,"name":"054_PLAZA SAN JUAN DE LA PALMA","address":"PLAZA SAN JUAN DE LA PALMA - Aprox. iglesia","latitude":37.39523950356959,"longitude":-5.991050208758028},{"number":28,"name":"028_CALLE RAFAEL SALGADO","address":"CALLE RAFAEL SALGADO - Aprox. C/ Castillo Alcala de Guadaira","latitude":37.360261369216595,"longitude":-5.976659138066708},{"number":175,"name":"175_RONDA TAMARGUILLO","address":"RONDA TAMARGUILLO - Plaza Ruperto Chapí","latitude":37.37775744487495,"longitude":-5.960870092813821},{"number":201,"name":"201_CALLE PINO MONTANO","address":"CALLE PINO MONTANO - Aprox. C/ Estafeta","latitude":37.41568359361039,"longitude":-5.967858139167567},{"number":95,"name":"095_CALLE AMÉRICO VESPUCIO","address":"CALLE AMÉRICO VESPUCIO - Aprox. C/ Juan Bautista Muñoz","latitude":37.41217356557977,"longitude":-6.006338272120392},{"number":57,"name":"057_PLAZA CRISTO DE BURGOS","address":"PLAZA CRISTO DE BURGOS - Pza de San Pedro","latitude":37.39231861674279,"longitude":-5.989705187094715},{"number":225,"name":"225_CALLE FLOR DE RETAMA","address":"CALLE FLOR DE RETAMA - Aprox. Centro Deportivo Entreflores","latitude":37.397390540237105,"longitude":-5.918776956284244},{"number":231,"name":"231_AVENIDA ALCALDE LUIS URUÑUELA","address":"AVENIDA ALCALDE LUIS URUÑUELA - Aprox. Paseo Miguel de Unamuno","latitude":37.401673546456635,"longitude":-5.942139041014662},{"number":107,"name":"107_CALLE LUIS MORALES","address":"CALLE LUIS MORALES - Aprox. Nervión Plaza","latitude":37.38425946651307,"longitude":-5.972591137677613},{"number":127,"name":"127_CALLE VIRGEN DE LA VICTORIA","address":"CALLE VIRGEN DE LA VICTORIA - Aprox. C/ Asunción","latitude":37.37764043077863,"longitude":-5.997947222820481},{"number":139,"name":"139_AVENIDA DIEGO MARTINEZ BARRIO","address":"AVENIDA DIEGO MARTINEZ BARRIO - Aprox. Avda Gal Garcia de la Herranz","latitude":37.375075258863696,"longitude":-5.975863125578401},{"number":197,"name":"197_CALLE AGRICULTORES","address":"CALLE AGRICULTORES - Aprox. C/ estrella Betelgeuse","latitude":37.423438625065074,"longitude":-5.96640413851815},{"number":181,"name":"181_RONDA URBANA NORTE","address":"RONDA URBANA NORTE - Aprox. C/ Doctor Fedriani","latitude":37.41335157894307,"longitude":-5.982568189409848},{"number":34,"name":"034_PLAZA PUMAREJO","address":"PLAZA PUMAREJO - Aprox. Calle San Luis","latitude":37.40102752757453,"longitude":-5.988578203413862},{"number":89,"name":"089_CALLE ADRIANO","address":"CALLE ADRIANO - Aprox. C/ Antonia Díaz","latitude":37.38648146613877,"longitude":-5.997790227366178},{"number":252,"name":"252_GASPAR CALDERAS","address":"GASPAR CALDERAS.- Esquina con Carretera Bellasvistas","latitude":37.32458203503861,"longitude":-5.968972128124462},{"number":40,"name":"040_AVENIDA REINA MERCEDES","address":"AVENIDA REINA MERCEDES - Aprox. Glorieta Alcalde de Parias Merry","latitude":37.35635082669173,"longitude":-5.986459877403918},{"number":183,"name":"183_ALCALDE MANUEL DEL VALLE","address":"ALCALDE MANUEL DEL VALLE - Aprox. C/ Pino Montano","latitude":37.41101757377389,"longitude":-5.97121914827267},{"number":238,"name":"238_CIUDAD DE CHIVA","address":"CIUDAD DE CHIVA - Aprox. Pza del Árbol Rey","latitude":37.408132573830756,"longitude":-5.919993048486191},{"number":50,"name":"050_CALLE DE HERNÁN CORTÉS","address":"CALLE DE HERNÁN CORTÉS - Aprox. C/ Eslava","latitude":37.397554510745486,"longitude":-5.996695229895344},{"number":229,"name":"229_AVENIDA AERONAUTICA","address":"AVENIDA AERONAUTICA - Aprox. Avda del Deporte","latitude":37.38735449491008,"longitude":-5.919918954593122},{"number":151,"name":"151_CALLE URQUIZA","address":"CALLE URQUIZA - Aprox. C/ Venecia","latitude":37.394544466945845,"longitude":-5.979897194354694},{"number":116,"name":"116_CALLE MANUEL SIUROT","address":"CALLE MANUEL SIUROT - Aprox. Hospital Universitario Virgen del Rocio","latitude":37.36143037206055,"longitude":-5.981603156091943},{"number":39,"name":"039_PLAZA SAN ANTONIO DE PADUA","address":"PLAZA SAN ANTONIO DE PADUA - Aprox. C/ Marqués de la Mina","latitude":37.397840022304365,"longitude":-5.998504686877961},{"number":53,"name":"053_CALLE REYES CATÓLICOS","address":"CALLE REYES CATÓLICOS - Aprox. C/ Gravina","latitude":37.38934147689296,"longitude":-5.999605235382445},{"number":155,"name":"155_AVENIDA KANSAS CITY","address":"AVENIDA KANSAS CITY - Aprox. Avda El Greco","latitude":37.392910501713985,"longitude":-5.970739136171973},{"number":131,"name":"131_CALLE TABLADILLA","address":"CALLE TABLADILLA - Aprox. C/ Cardenal Ilundaín","latitude":37.364750385373725,"longitude":-5.981452157485012},{"number":35,"name":"035_ALAMEDA DE HERCULES","address":"ALAMEDA DE HERCULES - Aprox. Calle Peris Mencheta","latitude":37.400682524351275,"longitude":-5.993630220939186},{"number":56,"name":"056_PLAZA JERÓNIMO DE CORDOBA","address":"PLAZA JERONIMO DE CORDOBA- Aprox. C/ Escuelas Pías","latitude":37.39308649644441,"longitude":-5.98703819345455},{"number":129,"name":"129_CALLE VIRGEN DE LUJAN","address":"CALLE VIRGEN DE LUJAN - Aprox. Virgen de la Victoria","latitude":37.374668417254036,"longitude":-6.002455236928109},{"number":124,"name":"124_CALLE ENRAMADILLA","address":"CALLE ENRAMADILLA - Aprox. C/ Barrau","latitude":37.37773043874411,"longitude":-5.977244150228713},{"number":92,"name":"092_RONDA DE TRIANA","address":"RONDA DE TRIANA - Aprox. C/ de Manuel Arellano","latitude":37.385838469752265,"longitude":-6.011220377621846},{"number":111,"name":"111_PZA FARMACÉUTICO MURILLO HERRERA","address":"PZA FARMACÉUTICO MURILLO HERRERA - Aprox. C/ Pajes de Corro","latitude":37.3813174443225,"longitude":-6.001053235842167},{"number":189,"name":"189_AVENIDA HYTASA","address":"AVENIDA HYTASA - Aprox. Nuestra Señora de los Dolores","latitude":37.37005341642907,"longitude":-5.959496083704879},{"number":174,"name":"174_RONDA TAMARGUILLO","address":"RONDA TAMARGUILLO - Aprox. Marqués de Pickman","latitude":37.38061245637617,"longitude":-5.960574093426685},{"number":223,"name":"223_CALLE GEMA","address":"CALLE GEMA - Aprox. Avda de las Ciencias","latitude":37.40073135956411,"longitude":-5.92632420198497},{"number":121,"name":"121_CALLE DOCTOR PEDRO DE CASTRO","address":"CALLE DOCTOR PEDRO DE CASTRO - Aprox. C/ Doc. Gabriel Sánchez","latitude":37.377158434736266,"longitude":-5.981935166355452},{"number":213,"name":"213_AVENIDA DE ANDALUCIA","address":"AVENIDA DE ANDALUCIA - Aprox. Cochera de TUSSAM","latitude":37.38714348690405,"longitude":-5.948410054553437},{"number":25,"name":"025_AVENIDA DE LA CRUZ ROJA","address":"AVENIDA DE LA CRUZ ROJA - Aprox. C/ Albaida","latitude":37.40313253870445,"longitude":-5.981109178424791},{"number":85,"name":"085_PASEO CATALINA RIBERA","address":"PASEO CATALINA RIBERA - Frente a la Diputación Provincial","latitude":37.38535146566221,"longitude":-5.986785188099708},{"number":47,"name":"047_CALLE HINIESTA","address":"CALLE HINIESTA - Aprox. Convento Santa Isabel","latitude":37.39713251259333,"longitude":-5.987037195768433},{"number":228,"name":"228_AVENIDA DE LAS CIENCIAS","address":"AVENIDA DE LAS CIENCIAS - Aprox. C/ Flor de Salvia","latitude":37.394449523785354,"longitude":-5.921230963560515},{"number":76,"name":"076_PLAZA NUEVA","address":"PLAZA NUEVA - Aprox. C/ Jaen","latitude":37.38893947673792,"longitude":-5.995646221258141},{"number":72,"name":"072_CALLE AMADOR DE LOS RIOS","address":"CALLE AMADOR DE LOS RIOS - Aprox. C/ Lope de Vega","latitude":37.39071248853365,"longitude":-5.982768177096753},{"number":180,"name":"180_CALLE DOCTOR JAIME MARCOS","address":"CALLE DOCTOR JAIME MARCOS - Aprox. Avda. Doc. Fedriani","latitude":37.40964956350476,"longitude":-5.98440119371439},{"number":20,"name":"020_CALLE SAN JUAN DE RIBERA","address":"CALLE SAN JUAN DE RIBERA - Aprox. C/ Fray Isidoro de Sevilla","latitude":37.404869543652175,"longitude":-5.986537198461927},{"number":52,"name":"052_CALLE DEL INCA GARCILASO","address":"CALLE DEL INCA GARCILASO - Aprox. C/ Jerónimo de Aguilar","latitude":37.39422649248208,"longitude":-6.010309275759171},{"number":105,"name":"105_CALLE FRANCISCO MURILLO","address":"CALLE FRANCISCO MURILLO - Aprox. C/ Manuel Siurot","latitude":37.358910362359936,"longitude":-5.980620151182153},{"number":32,"name":"032_CALLE MUÑOZ LEÓN","address":"CALLE MUÑOZ LEÓN - Aprox. C/ Morera","latitude":37.402019532357485,"longitude":-5.986323196073661},{"number":157,"name":"157_AVENIDA CARDENAL BUENO MONREAL","address":"AVENIDA CARDENAL BUENO MONREAL - Aprox. Avda Ramón Carande","latitude":37.369799405424466,"longitude":-5.978194722821982},{"number":114,"name":"114_GLORIETA PLUS ULTRA","address":"GLORIETA PLUS ULTRA - Aprox. Estadio Manuel Ruiz de Lopera","latitude":37.356372352725714,"longitude":-5.979262144945245},{"number":112,"name":"112_AVDA ESPERANZA DE TRIANA","address":"AVDA ESPERANZA DE TRIANA - Aprox. Plaza Amadeo Janone","latitude":37.380153438452595,"longitude":-6.004383246859136},{"number":134,"name":"134_CALLE VIRGEN DE LUJÁN","address":"CALLE VIRGEN DE LUJÁN - Aprox. C/ Asunción","latitude":37.374770419100905,"longitude":-5.998536223231469},{"number":70,"name":"070_ESTACIÓN RENFE SANTA JUSTA","address":"ESTACIÓN RENFE SANTA JUSTA","latitude":37.39115849280489,"longitude":-5.975971153511849},{"number":144,"name":"144_AVENIDA DE LA PALMERA","address":"AVENIDA DE LA PALMERA - Aprox. Clinica de Fátima","latitude":37.36912633937041,"longitude":-5.988080397280193},{"number":159,"name":"159_AVENIDA CARDENAL BUENO MONREAL","address":"AVENIDA CARDENAL BUENO MONREAL - Aprox. Avda Manuel Siurot","latitude":37.36804539727759,"longitude":-5.984854171329494},{"number":65,"name":"065_CALLE ALHÓNDIGA","address":"CALLE ALHÓNDIGA - Aprox. Card. Cervantes","latitude":37.391299488908295,"longitude":-5.988140196280803},{"number":146,"name":"146_AVENIDA REINA MERCEDES","address":"AVENIDA REINA MERCEDES - Aprox. C/ Profesor García González","latitude":37.360100626411395,"longitude":-5.986312974875395},{"number":135,"name":"135_CALLE VIRGEN DE LUJÁN","address":"CALLE VIRGEN DE LUJÁN - Aprox. Glorieta las Cigarreras","latitude":37.37465142036539,"longitude":-5.993801206544696},{"number":215,"name":"215_CALLE ZORZAL","address":"CALLE ZORZAL - Aprox. Avenida de Andalucia","latitude":37.38664148025849,"longitude":-5.953981074150936},{"number":162,"name":"162_AVENIDA SOLEA","address":"AVENIDA SOLEA - Aprox. C/ Media Granaína","latitude":37.39154049708111,"longitude":-5.96846612741093},{"number":10,"name":"010_CALLE JOSE DIAZ","address":"CALLE JOSE DIAZ - Aprox. Avda Concejal Alberto Jiménez-Becerril","latitude":37.40938502560925,"longitude":-5.990766008714238}]