[{"number":7,"name":"北新町１丁目 KITASHIN-MACHI 1","address":"北新町１丁目３番 1-3 Kitashin-machi","latitude":36.693935,"longitude":137.220853},{"number":1,"name":"環水公園東 CANAL PARK　EAST","address":"奥田新町８番 8 Okudashin-machi","latitude":36.705842,"longitude":137.215829},{"number":2,"name":"富山駅北 TOYAMA STATION NORTH","address":"牛島町１７番 17 Ushijima-cho","latitude":36.703055,"longitude":137.214531},{"number":4,"name":"富山駅南② TOYAMA STATION SOUTH 2","address":"新富町１丁目２番４号 1-2-4 Shintomi-cho","latitude":36.699785,"longitude":137.212951},{"number":17,"name":"環水公園西　CANAL PARK WEST","address":"牛島本町2丁目1-38　2-1-38 Ushijimahonncho","latitude":36.709021,"longitude":137.21056},{"number":8,"name":"本町 HON-MACHI","address":"本町３番 3 Hon-machi","latitude":36.694109,"longitude":137.216014},{"number":9,"name":"城址公園東 CASTLE PARK EAST","address":"本丸１番 1 Honmaru","latitude":36.693453,"longitude":137.212635},{"number":14,"name":"西町 NISHI-CHO","address":"西町３番 3 Nishi-cho","latitude":36.688971,"longitude":137.214437},{"number":15,"name":"堤町通り TSUTSUMICHO STREET","address":"堤町通り１丁目２番２６号 1-2-26 Tsutsumicho-dori","latitude":36.688891,"longitude":137.217613},{"number":3,"name":"富山駅南① TOYAMA STATION SOUTH 1","address":"明輪町１番 1 Meirin-cho","latitude":36.700641,"longitude":137.211718},{"number":10,"name":"丸の内 MARUNOUCHI","address":"丸の内３丁目１番 3-1 Marunouchi","latitude":36.692294,"longitude":137.209547},{"number":20,"name":"水墨美術館　SUIBOKU MUSEUM","address":"五福777 777Gofuku","latitude":36.699082,"longitude":137.195685},{"number":21,"name":"富山大学構内　TOYAMA UNIVERSITY CAMPUS","address":"富山市五福3910　3910Gofuku","latitude":36.700647,"longitude":137.188678},{"number":11,"name":"大手町 OTE-MACHI","address":"大手町２番 2 Ote-machi","latitude":36.691732,"longitude":137.211425},{"number":16,"name":"県庁前公園　KENCHOMAE PARK","address":"新総曲輪1丁目7番　1-7 Shinsogawa 3月13日まで休止中","latitude":36.69597,"longitude":137.210053},{"number":13,"name":"旅籠町 HATAGO-MACHI","address":"旅籠町２番１０号 2-10 Hatago-machi","latitude":36.6893,"longitude":137.208727},{"number":6,"name":"市役所 CITY HALL","address":"新桜町７番 7 Shinsakura-machi","latitude":36.696277,"longitude":137.213238},{"number":18,"name":"富山大学前 TOYAMA UNIVERSITY MAE","address":"五福字才勝1929番地8","latitude":36.698655,"longitude":137.191297},{"number":19,"name":"南口駅前広場STATION PLAZA SOUTH ENTRANCE","address":"富山市明輪町1内 Station Plaza South","latitude":36.700638,"longitude":137.21281},{"number":22,"name":"呉羽丘陵多目的広場　KUREHA HILLS MULTI-PORPOSE SQUARE","address":"富山市五福　Gofuku","latitude":36.704718,"longitude":137.182395},{"number":12,"name":"荒町 ARA-MACHI","address":"荒町６番 6 Ara-machi","latitude":36.691711,"longitude":137.215395},{"number":23,"name":"民俗民芸村　MUNICIPAL FOLKCRAFT VILLAGE","address":"安養坊1118－1　1118-1Anyobo","latitude":36.708755,"longitude":137.190695},{"number":5,"name":"桜橋通り SAKURABASHI STREET","address":"桜橋通り６番 6 Sakurabashi-dori","latitude":36.697144,"longitude":137.21636}]